$GPGGA,100002.138,3820.3813,N,12240.6673,W,1,06,1.3,497.4,M,-25.1,M,,0000*62

@,&,700.212
$GPGGA,100003.206,3820.3802,N,12240.6673,W,1,06,1.3,883.2,M,-25.1,M,,0000*62

@,&,160.178
$GPGGA,100004.275,3820.3793,N,12240.6673,W,1,06,1.3,1200.6,M,-25.1,M,,0000*62

@,&,210.561
$GPGGA,100005.344,3820.3785,N,12240.6673,W,1,06,1.3,1458.9,M,-25.1,M,,0000*62

@,&,135.112
$GPGGA,100006.412,3820.3778,N,12240.6673,W,1,06,1.3,1674.3,M,-25.1,M,,0000*62

@,&,89.818
$GPGGA,100007.481,3820.3772,N,12240.6673,W,1,06,1.3,1856.6,M,-25.1,M,,0000*62

@,&,62.256
$GPGGA,100008.55,3820.3766,N,12240.6673,W,1,06,1.3,2012.2,M,-25.1,M,,0000*62

@,&,44.263
$GPGGA,100009.619,3820.3761,N,12240.6673,W,1,06,1.3,2146.0,M,-25.1,M,,0000*62

@,&,27.931
$GPGGA,100010.688,3820.3756,N,12240.6673,W,1,06,1.3,2261.3,M,-25.1,M,,0000*62

@,&,20.852
$GPGGA,100011.756,3820.3751,N,12240.6673,W,1,06,1.3,2360.1,M,-25.1,M,,0000*62

@,&,15.446
$GPGGA,100012.825,3820.3747,N,12240.6673,W,1,06,1.3,2443.8,M,-25.1,M,,0000*62

@,&,11.267
$GPGGA,100013.894,3820.3743,N,12240.6673,W,1,06,1.3,2513.5,M,-25.1,M,,0000*62

@,&,8.016
$GPGGA,100014.962,3820.3739,N,12240.6673,W,1,06,1.3,2570.1,M,-25.1,M,,0000*62

@,&,5.487
$GPGGA,100016.031,3820.3735,N,12240.6673,W,1,06,1.3,2614.3,M,-25.1,M,,0000*62

@,&,3.54
$GPGGA,100017.1,3820.3731,N,12240.6673,W,1,06,1.3,2646.6,M,-25.1,M,,0000*62

@,&,2.077
$GPGGA,100018.169,3820.3728,N,12240.6673,W,1,06,1.3,2667.3,M,-25.1,M,,0000*62

@,&,1.035
$GPGGA,100019.238,3820.3724,N,12240.6673,W,1,06,1.3,2676.8,M,-25.1,M,,0000*62

@,&,0.372
$GPGGA,100020.306,3820.3726,N,12240.6673,W,1,06,1.3,2675.1,M,-25.1,M,,0000*62

@,&,0.036
$GPGGA,100021.375,3820.373,N,12240.6673,W,1,06,1.3,2663.2,M,-25.1,M,,0000*62

@,&,2.261
$GPGGA,100022.444,3820.3734,N,12240.6673,W,1,06,1.3,2644.2,M,-25.1,M,,0000*62

@,&,11.451
$GPGGA,100023.512,3820.3739,N,12240.6673,W,1,06,1.3,2621.1,M,-25.1,M,,0000*62

@,&,20.698
$GPGGA,100024.581,3820.3744,N,12240.6673,W,1,06,1.3,2596.1,M,-25.1,M,,0000*62

@,&,26.58
$GPGGA,100025.65,3820.3749,N,12240.6673,W,1,06,1.3,2570.1,M,-25.1,M,,0000*62

@,&,29.614
$GPGGA,100026.719,3820.3754,N,12240.6673,W,1,06,1.3,2543.8,M,-25.1,M,,0000*62

@,&,31.035
$GPGGA,100027.788,3820.3759,N,12240.6673,W,1,06,1.3,2517.3,M,-25.1,M,,0000*62

@,&,31.672
$GPGGA,100028.856,3820.3764,N,12240.6673,W,1,06,1.3,2490.7,M,-25.1,M,,0000*62

@,&,31.952
$GPGGA,100029.925,3820.377,N,12240.6673,W,1,06,1.3,2464.2,M,-25.1,M,,0000*62

@,&,32.074
$GPGGA,100030.994,3820.3775,N,12240.6673,W,1,06,1.3,2437.7,M,-25.1,M,,0000*62

@,&,32.126
$GPGGA,100032.062,3820.3781,N,12240.6673,W,1,06,1.3,2411.2,M,-25.1,M,,0000*62

@,&,32.149
$GPGGA,100033.131,3820.3787,N,12240.6673,W,1,06,1.3,2384.8,M,-25.1,M,,0000*62

@,&,32.159
$GPGGA,100034.2,3820.3793,N,12240.6673,W,1,06,1.3,2358.3,M,-25.1,M,,0000*62

@,&,32.163
$GPGGA,100035.269,3820.3799,N,12240.6673,W,1,06,1.3,2332.0,M,-25.1,M,,0000*62

@,&,32.165
$GPGGA,100036.338,3820.3805,N,12240.6673,W,1,06,1.3,2305.6,M,-25.1,M,,0000*62

@,&,32.165
$GPGGA,100037.406,3820.3812,N,12240.6673,W,1,06,1.3,2279.3,M,-25.1,M,,0000*62

@,&,32.166
$GPGGA,100038.475,3820.3818,N,12240.6673,W,1,06,1.3,2253.0,M,-25.1,M,,0000*62

@,&,32.166
$GPGGA,100039.544,3820.3825,N,12240.6673,W,1,06,1.3,2226.8,M,-25.1,M,,0000*62

@,&,32.166
$GPGGA,100040.612,3820.3832,N,12240.6673,W,1,06,1.3,2200.6,M,-25.1,M,,0000*62

@,&,32.166
$GPGGA,100041.681,3820.3838,N,12240.6673,W,1,06,1.3,2174.4,M,-25.1,M,,0000*62

@,&,32.166
$GPGGA,100042.75,3820.3845,N,12240.6673,W,1,06,1.3,2148.3,M,-25.1,M,,0000*62

@,&,32.166
$GPGGA,100043.819,3820.3852,N,12240.6673,W,1,06,1.3,2122.2,M,-25.1,M,,0000*62

@,&,32.166
$GPGGA,100044.888,3820.3859,N,12240.6673,W,1,06,1.3,2096.1,M,-25.1,M,,0000*62

@,&,32.166
$GPGGA,100045.956,3820.3866,N,12240.6673,W,1,06,1.3,2070.0,M,-25.1,M,,0000*62

@,&,32.166
$GPGGA,100047.025,3820.3874,N,12240.6673,W,1,06,1.3,2044.0,M,-25.1,M,,0000*62

@,&,32.166
$GPGGA,100048.094,3820.3881,N,12240.6673,W,1,06,1.3,2018.1,M,-25.1,M,,0000*62

@,&,32.166
$GPGGA,100049.162,3820.3888,N,12240.6673,W,1,06,1.3,1992.1,M,-25.1,M,,0000*62

@,&,32.165
$GPGGA,100050.231,3820.3895,N,12240.6673,W,1,06,1.3,1966.2,M,-25.1,M,,0000*62

@,&,32.165
$GPGGA,100051.3,3820.3903,N,12240.6673,W,1,06,1.3,1940.4,M,-25.1,M,,0000*62

@,&,32.165
$GPGGA,100052.369,3820.391,N,12240.6673,W,1,06,1.3,1914.5,M,-25.1,M,,0000*62

@,&,32.165
$GPGGA,100053.438,3820.3918,N,12240.6673,W,1,06,1.3,1888.7,M,-25.1,M,,0000*62

@,&,32.165
$GPGGA,100054.506,3820.3925,N,12240.6673,W,1,06,1.3,1862.9,M,-25.1,M,,0000*62

@,&,32.165
$GPGGA,100055.575,3820.3932,N,12240.6673,W,1,06,1.3,1837.2,M,-25.1,M,,0000*62

@,&,32.165
$GPGGA,100056.644,3820.394,N,12240.6673,W,1,06,1.3,1811.5,M,-25.1,M,,0000*62

@,&,32.165
$GPGGA,100057.712,3820.3947,N,12240.6673,W,1,06,1.3,1785.8,M,-25.1,M,,0000*62

@,&,32.165
$GPGGA,100058.781,3820.3955,N,12240.6673,W,1,06,1.3,1760.2,M,-25.1,M,,0000*62

@,&,32.165
$GPGGA,100059.85,3820.3962,N,12240.6673,W,1,06,1.3,1734.6,M,-25.1,M,,0000*62

@,&,32.165
$GPGGA,100060.919,3820.397,N,12240.6673,W,1,06,1.3,1709.0,M,-25.1,M,,0000*62

@,&,32.165
$GPGGA,100061.988,3820.3977,N,12240.6673,W,1,06,1.3,1683.5,M,-25.1,M,,0000*62

@,&,32.165
$GPGGA,100063.056,3820.3985,N,12240.6673,W,1,06,1.3,1657.9,M,-25.1,M,,0000*62

@,&,32.165
$GPGGA,100064.125,3820.3992,N,12240.6673,W,1,06,1.3,1632.5,M,-25.1,M,,0000*62

@,&,32.165
$GPGGA,100065.194,3820.3999,N,12240.6673,W,1,06,1.3,1607.0,M,-25.1,M,,0000*62

@,&,32.165
$GPGGA,100066.262,3820.4006,N,12240.6673,W,1,06,1.3,1581.6,M,-25.1,M,,0000*62

@,&,32.165
$GPGGA,100067.331,3820.4014,N,12240.6673,W,1,06,1.3,1556.2,M,-25.1,M,,0000*62

@,&,32.165
$GPGGA,100068.4,3820.4021,N,12240.6673,W,1,06,1.3,1530.9,M,-25.1,M,,0000*62

@,&,32.165
$GPGGA,100069.469,3820.4028,N,12240.6673,W,1,06,1.3,1505.5,M,-25.1,M,,0000*62

@,&,32.165
$GPGGA,100070.538,3820.4035,N,12240.6673,W,1,06,1.3,1480.3,M,-25.1,M,,0000*62

@,&,32.165
$GPGGA,100071.606,3820.4041,N,12240.6673,W,1,06,1.3,1455.0,M,-25.1,M,,0000*62

@,&,32.165
$GPGGA,100072.675,3820.4048,N,12240.6673,W,1,06,1.3,1429.8,M,-25.1,M,,0000*62

@,&,32.165
$GPGGA,100073.744,3820.4055,N,12240.6673,W,1,06,1.3,1404.6,M,-25.1,M,,0000*62

@,&,32.165
$GPGGA,100074.812,3820.4061,N,12240.6673,W,1,06,1.3,1379.4,M,-25.1,M,,0000*62

@,&,32.165
$GPGGA,100075.881,3820.4068,N,12240.6673,W,1,06,1.3,1354.3,M,-25.1,M,,0000*62

@,&,32.165
$GPGGA,100076.95,3820.4074,N,12240.6673,W,1,06,1.3,1329.2,M,-25.1,M,,0000*62

@,&,32.165
$GPGGA,100078.019,3820.408,N,12240.6673,W,1,06,1.3,1304.1,M,-25.1,M,,0000*62

@,&,32.165
$GPGGA,100079.088,3820.4087,N,12240.6673,W,1,06,1.3,1279.1,M,-25.1,M,,0000*62

@,&,32.165
$GPGGA,100080.156,3820.4093,N,12240.6673,W,1,06,1.3,1254.1,M,-25.1,M,,0000*62

@,&,32.158
$GPGGA,100081.225,3820.4098,N,12240.6673,W,1,06,1.3,1229.1,M,-25.1,M,,0000*62

@,&,32.117
$GPGGA,100082.294,3820.4104,N,12240.6673,W,1,06,1.3,1204.1,M,-25.1,M,,0000*62

@,&,32.101
$GPGGA,100083.362,3820.411,N,12240.6673,W,1,06,1.3,1179.1,M,-25.1,M,,0000*62

@,&,32.095
$GPGGA,100084.431,3820.4115,N,12240.6673,W,1,06,1.3,1154.1,M,-25.1,M,,0000*62

@,&,32.094
$GPGGA,100085.5,3820.412,N,12240.6673,W,1,06,1.3,1129.1,M,-25.1,M,,0000*62

@,&,32.094
$GPGGA,100086.569,3820.4126,N,12240.6673,W,1,06,1.3,1104.2,M,-25.1,M,,0000*62

@,&,32.095
$GPGGA,100087.638,3820.4131,N,12240.6673,W,1,06,1.3,1079.2,M,-25.1,M,,0000*62

@,&,32.097
$GPGGA,100088.706,3820.4135,N,12240.6673,W,1,06,1.3,1054.3,M,-25.1,M,,0000*62

@,&,32.098
$GPGGA,100089.775,3820.414,N,12240.6673,W,1,06,1.3,1029.3,M,-25.1,M,,0000*62

@,&,32.1
$GPGGA,100090.844,3820.4145,N,12240.6673,W,1,06,1.3,1004.4,M,-25.1,M,,0000*62

@,&,32.102
$GPGGA,100091.912,3820.4149,N,12240.6673,W,1,06,1.3,979.5,M,-25.1,M,,0000*62

@,&,32.103
$GPGGA,100092.981,3820.4153,N,12240.6673,W,1,06,1.3,954.5,M,-25.1,M,,0000*62

@,&,32.105
$GPGGA,100094.05,3820.4157,N,12240.6673,W,1,06,1.3,929.6,M,-25.1,M,,0000*62

@,&,32.107
$GPGGA,100095.119,3820.4161,N,12240.6673,W,1,06,1.3,904.7,M,-25.1,M,,0000*62

@,&,32.109
$GPGGA,100096.188,3820.4165,N,12240.6673,W,1,06,1.3,879.8,M,-25.1,M,,0000*62

@,&,32.111
$GPGGA,100097.256,3820.4169,N,12240.6673,W,1,06,1.3,855.0,M,-25.1,M,,0000*62

@,&,32.112
