$GPGGA,,,,,,0,00,99.99,,,,,,*48

@,!,186,&,101246

$GPGGA,,,,,,0,00,99.99,,,,,,*48

@,!,186,&,101240

$GPGGA,,,,,,0,00,99.99,,,,,,*48

@,!,187,&,101255

$GPGGA,,,,,,0,00,99.99,,,,,,*48

@,!,187,&,101243

$GPGGA,,,,,,0,00,99.99,,,,,,*48

@,!,186,&,101240

$GPGGA,,,,,,0,00,99.99,,,,,,*48

@,!,186,&,101243

$GPGGA,,,,,,0,00,99.99,,,,,,*48

@,!,185,&,101240

$GPGGA,,,,,,0,00,99.99,,,,,,*48

@,!,184,&,101240

$GPGGA,,,,,,0,00,99.99,,,,,,*48

@,!,184,&,101237

$GPGGA,,,,,,0,00,99.99,,,,,,*48

@,!,183,&,101240

$GPGGA,,,,,,0,00,99.99,,,,,,*48

@,!,183,&,101242

$GPGGA,,,,,,0,00,99.99,,,,,,*48

@,!,183,&,101239

$GPGGA,,,,,,0,00,99.99,,,,,,*48

@,!,182,&,101237

$GPGGA,,,,,,0,00,99.99,,,,,,*48

@,!,182,&,101251

$GPGGA,,,,,,0,00,99.99,,,,,,*48

@,!,182,&,101245

$GPGGA,,,,,,0,00,99.99,,,,,,*48

@,!,182,&,101245

$GPGGA,,,,,,0,00,99.99,,,,,,*48

@,!,182,&,101242

$GPGGA,,,,,,0,00,99.99,,,,,,*48

@,!,182,&,101250

$GPGGA,,,,,,0,00,99.99,,,,,,*48

@,!,182,&,101245

$GPGGA,,,,,,0,00,99.99,,,,,,*48

@,!,181,&,101242

$GPGGA,,,,,,0,00,99.99,,,,,,*48

@,!,181,&,101247

$GPGGA,,,,,,0,00,99.99,,,,,,*48

@,!,181,&,101250

$GPGGA,,,,,,0,00,99.99,,,,,,*48

@,!,180,&,101244

$GPGGA,,,,,,0,00,99.99,,,,,,*48

@,!,180,&,101242

$GPGGA,,,,,,0,00,99.99,,,,,,*48

@,!,180,&,101244

$GPGGA,,,,,,0,00,99.99,,,,,,*48

@,!,180,&,101230

$GPGGA,,,,,,0,00,99.99,,,,,,*48

@,!,180,&,101242

$GPGGA,,,,,,0,00,99.99,,,,,,*48

@,!,180,&,101233

$GPGGA,,,,,,0,00,99.99,,,,,,*48

@,!,180,&,101239

$GPGGA,,,,,,0,00,99.99,,,,,,*48

@,!,180,&,101230

$GPGGA,053316.48,,,,,0,00,99.99,,,,,,*68

@,!,180,&,101244

$GPGGA,053318.00,,,,,0,00,99.99,,,,,,*6A

@,!,180,&,101244

$GPGGA,053319.00,,,,,0,00,99.99,,,,,,*6B

@,!,180,&,101230

$GPGGA,053320.00,,,,,0,00,99.99,,,,,,*61

@,!,180,&,101247

$GPGGA,053321.00,,,,,0,00,99.99,,,,,,*60

@,!,180,&,101247

$GPGGA,053322.00,,,,,0,00,99.99,,,,,,*63

@,!,179,&,101236

$GPGGA,053323.00,,,,,0,00,99.99,,,,,,*62

@,!,179,&,101253

$GPGGA,053324.00,,,,,0,00,99.99,,,,,,*65

@,!,179,&,101250

$GPGGA,053325.00,,,,,0,00,99.99,,,,,,*64

@,!,179,&,101241

$GPGGA,053326.00,,,,,0,00,99.99,,,,,,*67

@,!,179,&,101250

$GPGGA,053327.00,,,,,0,00,99.99,,,,,,*66

@,!,179,&,101252

$GPGGA,053328.00,,,,,0,00,99.99,,,,,,*69

@,!,179,&,101250

$GPGGA,053329.00,,,,,0,00,99.99,,,,,,*68

@,!,179,&,101244

$GPGGA,053330.00,,,,,0,00,99.99,,,,,,*60

@,!,179,&,101238

$GPGGA,053331.00,,,,,0,00,99.99,,,,,,*61

@,!,178,&,101250

$GPGGA,053332.00,,,,,0,00,99.99,,,,,,*62

@,!,178,&,101244

$GPGGA,053333.01,,,,,0,00,99.99,,,,,,*62

@,!,178,&,101241

$GPGGA,053334.00,,,,,0,00,99.99,,,,,,*64

@,!,178,&,101244

$GPGGA,053335.00,,,,,0,00,99.99,,,,,,*65

@,!,178,&,101241

$GPGGA,053336.00,,,,,0,00,99.99,,,,,,*66

@,!,178,&,101244

$GPGGA,053337.00,,,,,0,00,99.99,,,,,,*67

@,!,178,&,101244

$GPGGA,053338.00,,,,,0,00,99.99,,,,,,*68

@,!,178,&,101241

$GPGGA,053338.00,,,,,0,00,99.99,,,,,,*68

@,!,178,&,101244

$GPGGA,053339.00,,,,,0,00,99.99,,,,,,*69

@,!,178,&,101238

$GPGGA,053340.00,,,,,0,00,99.99,,,,,,*67

@,!,177,&,101238

$GPGGA,053341.00,,,,,0,00,99.99,,,,,,*66

@,!,177,&,101244

$GPGGA,053342.00,,,,,0,00,99.99,,,,,,*65

@,!,177,&,101241

$GPGGA,053343.00,,,,,0,00,99.99,,,,,,*64

@,!,177,&,101244

$GPGGA,053344.00,,,,,0,00,99.99,,,,,,*63

@,!,177,&,101249

$GPGGA,053345.00,,,,,0,00,99.99,,,,,,*62

@,!,177,&,101243

$GPGGA,053346.00,,,,,0,00,99.99,,,,,,*61

@,!,177,&,101243

$GPGGA,053347.00,,,,,0,00,99.99,,,,,,*60

@,!,177,&,101241

$GPGGA,053348.00,,,,,0,00,99.99,,,,,,*6F

@,!,177,&,101241

$GPGGA,053349.00,,,,,0,00,99.99,,,,,,*6E

@,!,177,&,101246

$GPGGA,053350.00,,,,,0,00,99.99,,,,,,*66

@,!,176,&,101238

$GPGGA,053351.00,,,,,0,00,99.99,,,,,,*67

@,!,176,&,101252

$GPGGA,053352.00,,,,,0,00,99.99,,,,,,*64

@,!,176,&,101241

$GPGGA,053353.00,,,,,0,00,99.99,,,,,,*65

@,!,176,&,101241

$GPGGA,053354.00,,,,,0,00,99.99,,,,,,*62

@,!,176,&,101246

$GPGGA,053355.00,,,,,0,00,99.99,,,,,,*63

@,!,176,&,101246

$GPGGA,053356.00,,,,,0,00,99.99,,,,,,*60

@,!,176,&,101238

$GPGGA,053357.00,,,,,0,00,99.99,,,,,,*61

@,!,176,&,101246

$GPGGA,053358.00,,,,,0,00,99.99,,,,,,*6E

@,!,176,&,101243

$GPGGA,053359.00,,,,,0,00,99.99,,,,,,*6F

@,!,176,&,101246

$GPGGA,053400.00,,,,,0,00,99.99,,,,,,*64

@,!,176,&,101246

$GPGGA,053401.00,,,,,0,00,99.99,,,,,,*65

@,!,176,&,101240

$GPGGA,053401.98,,,,,0,00,99.99,,,,,,*64

@,!,176,&,101246

$GPGGA,053403.00,,,,,0,00,99.99,,,,,,*67

@,!,176,&,101237

$GPGGA,053404.00,,,,,0,00,99.99,,,,,,*60

@,!,175,&,101237

$GPGGA,053404.99,,,,,0,00,99.99,,,,,,*60

@,!,175,&,101240

$GPGGA,053406.00,,,,,0,00,99.99,,,,,,*62

@,!,175,&,101246

$GPGGA,053407.00,,,,,0,00,99.99,,,,,,*63

@,!,175,&,101249

$GPGGA,053407.99,,,,,0,00,99.99,,,,,,*63

@,!,175,&,101232

$GPGGA,053409.00,,,,,0,00,99.99,,,,,,*6D

@,!,175,&,101243

$GPGGA,053410.00,,,,,0,00,99.99,,,,,,*65

@,!,175,&,101235

$GPGGA,053410.99,,,,,0,00,99.99,,,,,,*65

@,!,175,&,101243

$GPGGA,053412.00,,,,,0,00,99.99,,,,,,*67

@,!,175,&,101237

$GPGGA,053413.00,,,,,0,00,99.99,,,,,,*66

@,!,175,&,101237

$GPGGA,053413.99,,,,,0,00,99.99,,,,,,*66

@,!,175,&,101240

$GPGGA,053415.00,,,,,0,00,99.99,,,,,,*60

@,!,175,&,101232

$GPGGA,053416.00,,,,,0,00,99.99,,,,,,*63

@,!,175,&,101232

$GPGGA,053416.99,,,,,0,00,99.99,,,,,,*63

@,!,175,&,101243

$GPGGA,053418.00,,,,,0,00,99.99,,,,,,*6D

@,!,175,&,101237

$GPGGA,053419.00,,,,,0,00,99.99,,,,,,*6C

@,!,175,&,101240

$GPGGA,053419.99,,,,,0,00,99.99,,,,,,*6C

@,!,175,&,101243

$GPGGA,053421.00,,,,,0,00,99.99,,,,,,*67

@,!,175,&,101232

$GPGGA,053422.00,,,,,0,00,99.99,,,,,,*64

@,!,175,&,101235

$GPGGA,053422.99,,,,,0,00,99.99,,,,,,*64

@,!,175,&,101237

$GPGGA,053424.00,,,,,0,00,99.99,,,,,,*62

@,!,175,&,101240

$GPGGA,053425.00,,,,,0,00,99.99,,,,,,*63

@,!,175,&,101235

$GPGGA,053425.99,,,,,0,00,99.99,,,,,,*63

@,!,175,&,101235

$GPGGA,053427.00,,,,,0,00,99.99,,,,,,*61

@,!,175,&,101240

$GPGGA,053428.00,,,,,0,00,99.99,,,,,,*6E

@,!,175,&,101243

$GPGGA,053428.99,,,,,0,00,99.99,,,,,,*6E

@,!,175,&,101249

$GPGGA,053430.00,,,,,0,00,99.99,,,,,,*67

@,!,175,&,101237

$GPGGA,053431.00,,,,,0,00,99.99,,,,,,*66

@,!,175,&,101232

$GPGGA,053431.99,,,,,0,00,99.99,,,,,,*66

@,!,175,&,101235

$GPGGA,053433.00,,,,,0,00,99.99,,,,,,*64

@,!,175,&,101237

$GPGGA,053434.00,,,,,0,00,99.99,,,,,,*63

@,!,175,&,101246

$GPGGA,053434.99,,,,,0,00,99.99,,,,,,*63

@,!,175,&,101237

$GPGGA,053436.00,,,,,0,00,99.99,,,,,,*61

@,!,175,&,101237

$GPGGA,053437.00,,,,,0,00,99.99,,,,,,*60

@,!,175,&,101226

$GPGGA,053437.99,,,,,0,00,99.99,,,,,,*60

@,!,175,&,101243

$GPGGA,053439.00,,,,,0,00,99.99,,,,,,*6E

@,!,175,&,101240

$GPGGA,053440.00,,,,,0,00,99.99,,,,,,*60

@,!,175,&,101249

$GPGGA,053440.99,,,,,0,00,99.99,,,,,,*60

@,!,175,&,101240

$GPGGA,053442.00,,,,,0,00,99.99,,,,,,*62

@,!,175,&,101243

$GPGGA,053443.00,,,,,0,00,99.99,,,,,,*63

@,!,175,&,101237

$GPGGA,053443.99,,,,,0,00,99.99,,,,,,*63

@,!,175,&,101246

$GPGGA,053445.00,,,,,0,00,99.99,,,,,,*65

@,!,175,&,101243

$GPGGA,053446.00,,,,,0,00,99.99,,,,,,*66

@,!,175,&,101240

$GPGGA,053447.00,,,,,0,00,99.99,,,,,,*67

@,!,175,&,101235

$GPGGA,053448.00,,,,,0,00,99.99,,,,,,*68

@,!,175,&,101240

$GPGGA,053449.00,,,,,0,00,99.99,,,,,,*69

@,!,175,&,101243

$GPGGA,053450.00,,,,,0,00,99.99,,,,,,*61

@,!,175,&,101235

$GPGGA,053451.00,,,,,0,00,99.99,,,,,,*60

@,!,175,&,101235

$GPGGA,053452.00,,,,,0,00,99.99,,,,,,*63

@,!,175,&,101240

$GPGGA,053453.00,,,,,0,00,99.99,,,,,,*62

@,!,175,&,101235

$GPGGA,053454.00,,,,,0,00,99.99,,,,,,*65

@,!,175,&,101246

$GPGGA,053455.00,,,,,0,00,99.99,,,,,,*64

@,!,175,&,101240

$GPGGA,053456.00,,,,,0,00,99.99,,,,,,*67

@,!,175,&,101235

$GPGGA,053457.00,,,,,0,00,99.99,,,,,,*66

@,!,175,&,101243

$GPGGA,053458.00,,,,,0,00,99.99,,,,,,*69

@,!,175,&,101246

$GPGGA,053459.00,,,,,0,00,99.99,,,,,,*68

@,!,175,&,101237

$GPGGA,053500.00,,,,,0,00,99.99,,,,,,*65

@,!,175,&,101237

$GPGGA,053501.00,,,,,0,00,99.99,,,,,,*64

@,!,175,&,101243

$GPGGA,053502.00,,,,,0,00,99.99,,,,,,*67

@,!,175,&,101235

$GPGGA,053503.00,,,,,0,00,99.99,,,,,,*66

@,!,175,&,101232

$GPGGA,053504.00,,,,,0,00,99.99,,,,,,*61

@,!,175,&,101243

$GPGGA,053505.00,,,,,0,00,99.99,,,,,,*60

@,!,175,&,101232

$GPGGA,053506.00,,,,,0,00,99.99,,,,,,*63

@,!,175,&,101243

$GPGGA,053507.00,,,,,0,00,99.99,,,,,,*62

@,!,175,&,101240

$GPGGA,053508.00,,,,,0,00,99.99,,,,,,*6D

@,!,175,&,101243

$GPGGA,053509.00,,,,,0,00,99.99,,,,,,*6C

@,!,175,&,101237

$GPGGA,053510.00,,,,,0,00,99.99,,,,,,*64

@,!,175,&,101237

$GPGGA,053511.00,,,,,0,00,99.99,,,,,,*65

@,!,175,&,101240

$GPGGA,053512.00,,,,,0,00,99.99,,,,,,*66

@,!,175,&,101240

$GPGGA,053513.00,,,,,0,00,99.99,,,,,,*67

@,!,175,&,101235

$GPGGA,053514.00,,,,,0,00,99.99,,,,,,*60

@,!,175,&,101237

$GPGGA,053515.00,,,,,0,00,99.99,,,,,,*61

@,!,175,&,101237

$GPGGA,053516.00,,,,,0,00,99.99,,,,,,*62

@,!,175,&,101243

$GPGGA,053517.00,,,,,0,00,99.99,,,,,,*63

@,!,175,&,101243

$GPGGA,053518.00,,,,,0,00,99.99,,,,,,*6C

@,!,175,&,101249

$GPGGA,053519.00,,,,,0,00,99.99,,,,,,*6D

@,!,175,&,101240

$GPGGA,053520.00,,,,,0,00,99.99,,,,,,*67

@,!,175,&,101249

$GPGGA,053521.00,,,,,0,00,99.99,,,,,,*66

@,!,175,&,101240

$GPGGA,053522.00,,,,,0,00,99.99,,,,,,*65

@,!,175,&,101246

$GPGGA,053523.00,,,,,0,00,99.99,,,,,,*64

@,!,175,&,101249

$GPGGA,053524.00,,,,,0,00,99.99,,,,,,*63

@,!,175,&,101240

$GPGGA,053525.00,,,,,0,00,99.99,,,,,,*62

@,!,175,&,101246

$GPGGA,053526.00,,,,,0,00,99.99,,,,,,*61

@,!,175,&,101235

$GPGGA,053527.00,,,,,0,00,99.99,,,,,,*60

@,!,175,&,101235

$GPGGA,053528.00,,,,,0,00,99.99,,,,,,*6F

@,!,175,&,101243

$GPGGA,053529.00,,,,,0,00,99.99,,,,,,*6E

@,!,175,&,101240

$GPGGA,053530.00,,,,,0,00,99.99,,,,,,*66

@,!,175,&,101246

$GPGGA,053531.00,,,,,0,00,99.99,,,,,,*67

@,!,175,&,101237

$GPGGA,053532.00,,,,,0,00,99.99,,,,,,*64

@,!,174,&,101232

$GPGGA,053533.00,,,,,0,00,99.99,,,,,,*65

@,!,174,&,101246

$GPGGA,053534.00,,,,,0,00,99.99,,,,,,*62

@,!,174,&,101240

$GPGGA,053535.00,,,,,0,00,99.99,,,,,,*63

@,!,174,&,101248

$GPGGA,053536.00,,,,,0,00,99.99,,,,,,*60

@,!,174,&,101234

$GPGGA,053537.00,,,,,0,00,99.99,,,,,,*61

@,!,174,&,101240

$GPGGA,053538.00,,,,,0,00,99.99,,,,,,*6E

@,!,174,&,101240

$GPGGA,053539.00,,,,,0,00,99.99,,,,,,*6F

@,!,174,&,101240

$GPGGA,053540.00,,,,,0,00,99.99,,,,,,*61

@,!,173,&,101240

$GPGGA,053541.00,,,,,0,00,99.99,,,,,,*60

@,!,174,&,101234

$GPGGA,053542.00,,,,,0,00,99.99,,,,,,*63

@,!,174,&,101237

$GPGGA,053543.00,,,,,0,00,99.99,,,,,,*62

@,!,173,&,101231

$GPGGA,053544.00,,,,,0,00,99.99,,,,,,*65

@,!,173,&,101231

$GPGGA,053545.00,,,,,0,00,99.99,,,,,,*64

@,!,173,&,101245

$GPGGA,053546.00,,,,,0,00,99.99,,,,,,*67

@,!,173,&,101245

$GPGGA,053547.00,,,,,0,00,99.99,,,,,,*66

@,!,173,&,101245

$GPGGA,053548.00,,,,,0,00,99.99,,,,,,*69

@,!,173,&,101245

$GPGGA,053549.00,,,,,0,00,99.99,,,,,,*68

@,!,173,&,101237

$GPGGA,053550.00,,,,,0,00,99.99,,,,,,*60

@,!,173,&,101245

$GPGGA,053551.00,,,,,0,00,99.99,,,,,,*61

@,!,173,&,101242

$GPGGA,053552.00,,,,,0,00,99.99,,,,,,*62

@,!,173,&,101240

$GPGGA,053553.00,,,,,0,00,99.99,,,,,,*63

@,!,173,&,101237

$GPGGA,053554.00,,,,,0,00,99.99,,,,,,*64

@,!,173,&,101240

$GPGGA,053555.00,,,,,0,00,99.99,,,,,,*65

@,!,173,&,101240

$GPGGA,053556.00,,,,,0,00,99.99,,,,,,*66

@,!,173,&,101231

$GPGGA,053557.00,,,,,0,00,99.99,,,,,,*67

@,!,173,&,101245

$GPGGA,053558.00,,,,,0,00,99.99,,,,,,*68

@,!,173,&,101240

$GPGGA,053559.00,,,,,0,00,99.99,,,,,,*69

@,!,173,&,101237

$GPGGA,053600.00,,,,,0,00,99.99,,,,,,*66

@,!,173,&,101240

$GPGGA,053601.00,,,,,0,00,99.99,,,,,,*67

@,!,173,&,101234

$GPGGA,053602.00,,,,,0,00,99.99,,,,,,*64

@,!,173,&,101240

$GPGGA,053603.00,,,,,0,00,99.99,,,,,,*65

@,!,173,&,101242

$GPGGA,053604.00,,,,,0,00,99.99,,,,,,*62

@,!,173,&,101237

$GPGGA,053605.00,,,,,0,00,99.99,,,,,,*63

@,!,173,&,101242

$GPGGA,053606.00,,,,,0,00,99.99,,,,,,*60

@,!,172,&,101242

$GPGGA,053607.00,,,,,0,00,99.99,,,,,,*61

@,!,172,&,101239

$GPGGA,053608.00,,,,,0,00,99.99,,,,,,*6E

@,!,173,&,101242

$GPGGA,053609.00,,,,,0,00,99.99,,,,,,*6F

@,!,173,&,101242

$GPGGA,053610.00,,,,,0,00,99.99,,,,,,*67

@,!,172,&,101234

$GPGGA,053611.00,,,,,0,00,99.99,,,,,,*66

@,!,172,&,101242

$GPGGA,053612.00,,,,,0,00,99.99,,,,,,*65

@,!,172,&,101237

$GPGGA,053613.00,,,,,0,00,99.99,,,,,,*64

@,!,172,&,101251

$GPGGA,053614.00,,,,,0,00,99.99,,,,,,*63

@,!,172,&,101259

$GPGGA,053615.00,,,,,0,00,99.99,,,,,,*62

@,!,172,&,101245

$GPGGA,053616.00,,,,,0,00,99.99,,,,,,*61

@,!,172,&,101242

$GPGGA,053617.00,,,,,0,00,99.99,,,,,,*60

@,!,172,&,101251

$GPGGA,053618.00,,,,,0,00,99.99,,,,,,*6F

@,!,172,&,101245

$GPGGA,053619.00,,,,,0,00,99.99,,,,,,*6E

@,!,172,&,101242

$GPGGA,053620.00,,,,,0,00,99.99,,,,,,*64

@,!,172,&,101236

$GPGGA,053621.00,,,,,0,00,99.99,,,,,,*65

@,!,172,&,101245

$GPGGA,053622.00,,,,,0,00,99.99,,,,,,*66

@,!,172,&,101239

$GPGGA,053623.00,,,,,0,00,99.99,,,,,,*67

@,!,171,&,101245

$GPGGA,053624.00,,,,,0,00,99.99,,,,,,*60

@,!,171,&,101239

$GPGGA,053625.00,,,,,0,00,99.99,,,,,,*61

@,!,171,&,101231

$GPGGA,053626.00,,,,,0,00,99.99,,,,,,*62

@,!,171,&,101256

$GPGGA,053627.00,,,,,0,00,99.99,,,,,,*63

@,!,171,&,101245

$GPGGA,053628.00,,,,,0,00,99.99,,,,,,*6C

@,!,170,&,101244

$GPGGA,053629.00,,,,,0,00,99.99,,,,,,*6D

@,!,170,&,101253

$GPGGA,053630.00,,,,,0,00,99.99,,,,,,*65

@,!,170,&,101247

$GPGGA,053631.00,,,,,0,00,99.99,,,,,,*64

@,!,170,&,101236

$GPGGA,053632.00,,,,,0,04,99.99,,,,,,*63

@,!,169,&,101227

$GPGGA,053633.00,,,,,0,04,99.99,,,,,,*62

@,!,170,&,101230

$GPGGA,053634.00,,,,,0,04,99.99,,,,,,*65

@,!,170,&,101230

$GPGGA,053635.00,,,,,0,04,99.99,,,,,,*64

@,!,169,&,101233

$GPGGA,053636.00,,,,,0,04,99.99,,,,,,*67

@,!,169,&,101233

$GPGGA,053637.00,,,,,0,04,99.99,,,,,,*66

@,!,169,&,101236

$GPGGA,053638.00,,,,,0,04,99.99,,,,,,*69

@,!,169,&,101244

$GPGGA,053639.00,,,,,0,04,99.99,,,,,,*68

@,!,169,&,101241

$GPGGA,053640.00,,,,,0,04,99.99,,,,,,*66

@,!,169,&,101244

$GPGGA,053641.00,,,,,0,04,99.99,,,,,,*67

@,!,169,&,101241

$GPGGA,053642.00,,,,,0,04,99.99,,,,,,*64

@,!,169,&,101227

$GPGGA,053643.00,,,,,0,04,99.99,,,,,,*65

@,!,169,&,101252

$GPGGA,053644.00,,,,,0,04,99.99,,,,,,*62

@,!,169,&,101233

$GPGGA,053645.00,,,,,0,04,99.99,,,,,,*63

@,!,168,&,101244

$GPGGA,053646.00,,,,,0,04,99.99,,,,,,*60

@,!,168,&,101244

$GPGGA,053647.00,,,,,0,04,99.99,,,,,,*61

@,!,168,&,101252

$GPGGA,053648.00,,,,,0,04,99.99,,,,,,*6E

@,!,168,&,101247

$GPGGA,053649.00,,,,,0,04,99.99,,,,,,*6F

@,!,168,&,101238

$GPGGA,053650.00,,,,,0,04,99.99,,,,,,*67

@,!,168,&,101249

$GPGGA,053651.00,,,,,0,04,99.99,,,,,,*66

@,!,168,&,101235

$GPGGA,053652.00,,,,,0,04,99.99,,,,,,*65

@,!,168,&,101238

$GPGGA,053653.00,,,,,0,04,99.99,,,,,,*64

@,!,168,&,101235

$GPGGA,053654.00,,,,,0,04,99.99,,,,,,*63

@,!,167,&,101238

$GPGGA,053655.00,,,,,0,04,99.99,,,,,,*62

@,!,167,&,101235

$GPGGA,053656.00,,,,,0,04,99.99,,,,,,*61

@,!,167,&,101235

$GPGGA,053657.00,,,,,0,04,99.99,,,,,,*60

@,!,167,&,101232

$GPGGA,053658.00,,,,,0,04,99.99,,,,,,*6F

@,!,167,&,101238

$GPGGA,053659.00,,,,,0,04,99.99,,,,,,*6E

@,!,167,&,101249

$GPGGA,053700.00,,,,,0,04,99.99,,,,,,*63

@,!,167,&,101243

$GPGGA,053701.00,,,,,0,04,99.99,,,,,,*62

@,!,167,&,101246

$GPGGA,053702.00,,,,,0,04,99.99,,,,,,*61

@,!,166,&,101238

$GPGGA,053703.00,,,,,0,04,99.99,,,,,,*60

@,!,166,&,101243

$GPGGA,053704.00,,,,,0,04,99.10,,,,,,*66

@,!,166,&,101243

$GPGGA,053705.00,,,,,0,04,98.15,,,,,,*63

@,!,166,&,101240

$GPGGA,053706.00,,,,,0,04,97.23,,,,,,*6A

@,!,166,&,101235

$GPGGA,053707.00,,,,,0,04,96.32,,,,,,*6A

@,!,165,&,101243

$GPGGA,053708.00,,,,,0,04,95.43,,,,,,*60

@,!,165,&,101249

$GPGGA,053709.00,,,,,0,04,94.55,,,,,,*67

@,!,165,&,101229

$GPGGA,053710.00,,,,,0,04,93.69,,,,,,*67

@,!,165,&,101254

$GPGGA,053711.00,,,,,0,04,92.85,,,,,,*65

@,!,165,&,101243

$GPGGA,053712.00,,,,,0,04,92.02,,,,,,*69

@,!,165,&,101243

$GPGGA,053713.00,,,,,0,04,91.21,,,,,,*6A

@,!,165,&,101240

$GPGGA,053714.00,,,,,0,04,90.41,,,,,,*6A

@,!,165,&,101237

$GPGGA,053715.00,,,,,0,04,89.63,,,,,,*63

@,!,165,&,101240

$GPGGA,053716.00,,,,,0,04,88.86,,,,,,*6A

@,!,164,&,101229

$GPGGA,053717.00,,,,,0,04,88.10,,,,,,*64

@,!,164,&,101237

$GPGGA,053718.00,,,,,0,04,87.36,,,,,,*60

@,!,164,&,101234

$GPGGA,053719.00,,,,,0,04,86.62,,,,,,*61

@,!,164,&,101248

$GPGGA,053720.00,,,,,0,04,85.90,,,,,,*65

@,!,164,&,101240

$GPGGA,053721.00,,,,,0,04,85.20,,,,,,*6F

@,!,164,&,101246

$GPGGA,053722.00,,,,,0,04,84.50,,,,,,*6A

@,!,164,&,101246

$GPGGA,053723.00,,,,,0,04,83.82,,,,,,*63

@,!,164,&,101237

$GPGGA,053724.00,,,,,0,04,83.14,,,,,,*6B

@,!,164,&,101243

$GPGGA,053725.00,,,,,0,04,82.48,,,,,,*62

@,!,164,&,101243

$GPGGA,053726.00,,,,,0,04,81.83,,,,,,*65

@,!,164,&,101237

$GPGGA,053727.00,,,,,0,04,81.19,,,,,,*67

@,!,163,&,101240

$GPGGA,053728.00,,,,,0,04,80.56,,,,,,*62

@,!,163,&,101240

$GPGGA,053729.00,,,,,0,04,79.94,,,,,,*6B

@,!,163,&,101237

$GPGGA,053730.00,,,,,0,04,79.33,,,,,,*6E

@,!,163,&,101231

$GPGGA,053731.00,,,,,0,04,78.72,,,,,,*6B

@,!,163,&,101242

$GPGGA,053732.00,,,,,0,04,78.13,,,,,,*6F

@,!,163,&,101248

$GPGGA,053733.00,,,,,0,05,3.19,,,,,,*59

@,!,163,&,101248

$GPGGA,053734.00,3827.54687,N,12241.00618,W,1,05,3.19,63.9,M,-29.0,M,,*51

@,!,163,&,101240

$GPGGA,053735.00,3827.54770,N,12241.00771,W,1,05,3.20,60.8,M,-29.0,M,,*5F

@,!,162,&,101242

$GPGGA,053736.00,3827.54804,N,12241.00859,W,1,05,3.20,59.2,M,-29.0,M,,*55

@,!,162,&,101254

$GPGGA,053737.00,3827.54822,N,12241.00903,W,1,05,3.20,58.1,M,-29.0,M,,*5C

@,!,163,&,101256

$GPGGA,053738.00,3827.54835,N,12241.00964,W,1,05,3.20,56.7,M,-29.0,M,,*5C

@,!,162,&,101239

$GPGGA,053739.00,3827.54842,N,12241.00974,W,1,05,3.20,56.6,M,-29.0,M,,*5D

@,!,162,&,101237

$GPGGA,053740.00,3827.54854,N,12241.00997,W,1,05,3.20,56.0,M,-29.0,M,,*5F

@,!,162,&,101245

$GPGGA,053741.00,3827.54848,N,12241.01017,W,1,05,3.20,55.8,M,-29.0,M,,*58

@,!,162,&,101245

$GPGGA,053742.00,3827.54849,N,12241.01027,W,1,05,3.20,55.4,M,-29.0,M,,*55

@,!,162,&,101237

$GPGGA,053743.00,3827.54842,N,12241.01018,W,1,05,3.20,55.3,M,-29.0,M,,*54

@,!,162,&,101245

$GPGGA,053744.00,3827.54840,N,12241.00993,W,1,05,3.20,55.5,M,-29.0,M,,*5C

@,!,162,&,101245

$GPGGA,053745.00,3827.54849,N,12241.00978,W,1,05,3.20,56.8,M,-29.0,M,,*5F

@,!,162,&,101239

$GPGGA,053746.00,3827.54837,N,12241.00978,W,1,05,3.20,55.6,M,-29.0,M,,*58

@,!,162,&,101245

$GPGGA,053747.00,3827.54869,N,12241.01012,W,1,05,3.20,54.7,M,-29.0,M,,*56

@,!,161,&,101236

$GPGGA,053748.00,3827.54889,N,12241.01060,W,1,05,3.20,53.2,M,-29.0,M,,*50

@,!,161,&,101236

$GPGGA,053749.00,3827.54899,N,12241.01083,W,1,05,3.20,53.3,M,-29.0,M,,*5C

@,!,161,&,101245

$GPGGA,053750.00,3827.54907,N,12241.01099,W,1,05,3.20,53.0,M,-29.0,M,,*5A

@,!,161,&,101242

$GPGGA,053751.00,3827.54900,N,12241.01102,W,1,05,3.20,53.0,M,-29.0,M,,*5F

@,!,161,&,101233

$GPGGA,053752.00,3827.54908,N,12241.01083,W,1,05,3.20,52.7,M,-29.0,M,,*5A

@,!,161,&,101239

$GPGGA,053753.00,3827.54920,N,12241.01047,W,1,05,3.20,52.3,M,-29.0,M,,*5D

@,!,161,&,101242

$GPGGA,053754.00,3827.54931,N,12241.01025,W,1,05,3.20,51.7,M,-29.0,M,,*59

@,!,161,&,101242

$GPGGA,053755.00,3827.54944,N,12241.01034,W,1,05,3.20,50.8,M,-29.0,M,,*54

@,!,161,&,101250

$GPGGA,053756.00,3827.54951,N,12241.01042,W,1,05,3.20,50.0,M,-29.0,M,,*5A

@,!,161,&,101245

$GPGGA,053757.00,3827.54946,N,12241.01073,W,1,05,3.20,49.8,M,-29.0,M,,*5F

@,!,161,&,101242

$GPGGA,053758.00,3827.54935,N,12241.01082,W,1,05,3.20,50.2,M,-29.0,M,,*58

@,!,161,&,101242

$GPGGA,053759.00,3827.54937,N,12241.01080,W,1,05,3.20,50.0,M,-29.0,M,,*5B

@,!,161,&,101248

$GPGGA,053800.00,3827.54940,N,12241.01083,W,1,05,3.20,49.5,M,-29.0,M,,*56

@,!,161,&,101231

$GPGGA,053801.00,3827.54967,N,12241.01083,W,1,05,3.21,48.6,M,-29.0,M,,*51

@,!,161,&,101239

$GPGGA,053802.00,3827.54973,N,12241.01053,W,1,05,3.21,48.5,M,-29.0,M,,*59

@,!,161,&,101245

$GPGGA,053803.00,3827.54970,N,12241.01031,W,1,05,3.21,48.4,M,-29.0,M,,*5E

@,!,161,&,101242

$GPGGA,053804.00,3827.54979,N,12241.01014,W,1,05,3.21,48.6,M,-29.0,M,,*55

@,!,161,&,101231

$GPGGA,053805.00,3827.55001,N,12241.01039,W,1,05,3.21,47.7,M,-29.0,M,,*52

@,!,161,&,101245

$GPGGA,053806.00,3827.54987,N,12241.01044,W,1,05,3.21,47.5,M,-29.0,M,,*5F

@,!,161,&,101233

$GPGGA,053807.00,3827.54992,N,12241.01065,W,1,05,3.21,46.8,M,-29.0,M,,*55

@,!,161,&,101231

$GPGGA,053808.00,3827.54995,N,12241.01133,W,1,05,3.21,47.1,M,-29.0,M,,*57

@,!,161,&,101239

$GPGGA,053809.00,3827.55000,N,12241.01209,W,1,05,3.21,47.4,M,-29.0,M,,*5D

@,!,161,&,101222

$GPGGA,053810.00,3827.55028,N,12241.01235,W,1,05,3.21,46.6,M,-29.0,M,,*53

@,!,161,&,101248

$GPGGA,053811.00,3827.55035,N,12241.01241,W,1,05,3.21,46.2,M,-29.0,M,,*59

@,!,161,&,101242

$GPGGA,053812.00,3827.55035,N,12241.01273,W,1,05,3.21,46.4,M,-29.0,M,,*5D

@,!,161,&,101239

$GPGGA,053813.00,3827.55037,N,12241.01308,W,1,05,3.21,46.2,M,-29.0,M,,*55

@,!,161,&,101231

$GPGGA,053814.00,3827.55025,N,12241.01302,W,1,05,3.21,46.0,M,-29.0,M,,*59

@,!,161,&,101234

$GPGGA,053815.00,3827.55030,N,12241.01303,W,1,05,3.21,45.6,M,-29.0,M,,*58

@,!,161,&,101231

$GPGGA,053816.00,3827.55025,N,12241.01286,W,1,05,3.21,46.0,M,-29.0,M,,*56

@,!,161,&,101233

$GPGGA,053817.00,3827.55041,N,12241.01322,W,1,05,3.21,45.7,M,-29.0,M,,*5E

@,!,161,&,101250

$GPGGA,053818.00,3827.55060,N,12241.01355,W,1,05,3.21,45.0,M,-29.0,M,,*55

@,!,161,&,101236

$GPGGA,053819.00,3827.55077,N,12241.01376,W,1,05,3.21,44.1,M,-29.0,M,,*53

@,!,161,&,101242

$GPGGA,053820.00,3827.55084,N,12241.01391,W,1,05,3.21,43.8,M,-29.0,M,,*52

@,!,160,&,101242

$GPGGA,053821.00,3827.55093,N,12241.01392,W,1,05,3.21,44.0,M,-29.0,M,,*59

@,!,160,&,101230

$GPGGA,053822.00,3827.55085,N,12241.01382,W,1,05,3.21,43.7,M,-29.0,M,,*5C

@,!,160,&,101236

$GPGGA,053823.00,3827.55061,N,12241.01376,W,1,05,3.21,44.0,M,-29.0,M,,*5C

@,!,160,&,101250

$GPGGA,053824.00,3827.55044,N,12241.01368,W,1,05,3.21,44.1,M,-29.0,M,,*52

@,!,160,&,101236

$GPGGA,053825.00,3827.55038,N,12241.01360,W,1,05,3.21,43.7,M,-29.0,M,,*51

@,!,160,&,101239

$GPGGA,053826.00,3827.55032,N,12241.01379,W,1,05,3.22,43.4,M,-29.0,M,,*50

@,!,160,&,101239

$GPGGA,053827.00,3827.55031,N,12241.01396,W,1,05,3.22,42.4,M,-29.0,M,,*52

@,!,160,&,101247

$GPGGA,053828.00,3827.55021,N,12241.01390,W,1,05,3.22,41.9,M,-29.0,M,,*54

@,!,160,&,101242

$GPGGA,053829.00,3827.55029,N,12241.01387,W,1,05,3.22,41.3,M,-29.0,M,,*51

@,!,159,&,101247

$GPGGA,053830.00,3827.55043,N,12241.01397,W,1,05,3.22,40.9,M,-29.0,M,,*5F

@,!,159,&,101255

$GPGGA,053831.00,3827.55051,N,12241.01412,W,1,05,3.22,40.1,M,-29.0,M,,*5F

@,!,159,&,101241

$GPGGA,053832.00,3827.55055,N,12241.01398,W,1,05,3.22,39.4,M,-29.0,M,,*56

@,!,159,&,101244

