$GPGGA,,,,,,0,00,99.99,,,,,,*48

@,!,191,&,101256
$GPGGA,,,,,,0,00,99.99,,,,,,*48

@,!,190,&,101264
$GPGGA,,,,,,0,00,99.99,,,,,,*48

@,!,188,&,101258
$GPGGA,,,,,,0,00,99.99,,,,,,*48

@,!,188,&,101255
$GPGGA,,,,,,0,00,99.99,,,,,,*48

@,!,188,&,101263
$GPGGA,,,,,,0,00,99.99,,,,,,*48

@,!,187,&,101263
$GPGGA,,,,,,0,00,99.99,,,,,,*48

@,!,186,&,101266
$GPGGA,,,,,,0,00,99.99,,,,,,*48

@,!,185,&,101265
$GPGGA,,,,,,0,00,99.99,,,,,,*48

@,!,185,&,101263
$GPGGA,,,,,,0,00,99.99,,,,,,*48

@,!,185,&,101260
$GPGGA,,,,,,0,00,99.99,,,,,,*48

@,!,184,&,101271
$GPGGA,,,,,,0,00,99.99,,,,,,*48

@,!,184,&,101265
$GPGGA,,,,,,0,00,99.99,,,,,,*48

@,!,184,&,101257
$GPGGA,,,,,,0,00,99.99,,,,,,*48

@,!,184,&,101257
$GPGGA,,,,,,0,00,99.99,,,,,,*48

@,!,184,&,101254
$GPGGA,,,,,,0,00,99.99,,,,,,*48

@,!,184,&,101268
$GPGGA,,,,,,0,00,99.99,,,,,,*48

@,!,184,&,101268
$GPGGA,,,,,,0,00,99.99,,,,,,*48

@,!,184,&,101251
$GPGGA,,,,,,0,00,99.99,,,,,,*48

@,!,183,&,101259
$GPGGA,,,,,,0,00,99.99,,,,,,*48

@,!,183,&,101262
$GPGGA,,,,,,0,00,99.99,,,,,,*48

@,!,183,&,101262
$GPGGA,,,,,,0,00,99.99,,,,,,*48

@,!,183,&,101265
$GPGGA,,,,,,0,00,99.99,,,,,,*48

@,!,183,&,101262
$GPGGA,,,,,,0,00,99.99,,,,,,*48

@,!,183,&,101268
$GPGGA,,,,,,0,00,99.99,,,,,,*48

@,!,182,&,101268
$GPGGA,,,,,,0,00,99.99,,,,,,*48

@,!,183,&,101259
$GPGGA,,,,,,0,00,99.99,,,,,,*48

@,!,182,&,101253
$GPGGA,,,,,,0,00,99.99,,,,,,*48

@,!,182,&,101253
$GPGGA,,,,,,0,00,99.99,,,,,,*48

@,!,182,&,101256
$GPGGA,,,,,,0,00,99.99,,,,,,*48

@,!,182,&,101265
$GPGGA,,,,,,0,00,99.99,,,,,,*48

@,!,182,&,101253
$GPGGA,,,,,,0,00,99.99,,,,,,*48

@,!,182,&,101250
$GPGGA,,,,,,0,00,99.99,,,,,,*48

@,!,181,&,101250
$GPGGA,,,,,,0,00,99.99,,,,,,*48

@,!,181,&,101259
$GPGGA,051741.00,,,,,0,00,99.99,,,,,,*60

@,!,181,&,101253
$GPGGA,051742.00,,,,,0,00,99.99,,,,,,*63

@,!,181,&,101267
$GPGGA,051743.00,,,,,0,00,99.99,,,,,,*62

@,!,181,&,101247
$GPGGA,051744.00,,,,,0,00,99.99,,,,,,*65

@,!,181,&,101264
$GPGGA,051745.00,,,,,0,00,99.99,,,,,,*64

@,!,181,&,101273
$GPGGA,051746.00,,,,,0,00,99.99,,,,,,*67

@,!,181,&,101250
$GPGGA,051747.00,,,,,0,00,99.99,,,,,,*66

@,!,180,&,101256
$GPGGA,051748.00,,,,,0,00,99.99,,,,,,*69

@,!,180,&,101253
$GPGGA,051749.00,,,,,0,00,99.99,,,,,,*68

@,!,180,&,101264
$GPGGA,051750.00,,,,,0,00,99.99,,,,,,*60

@,!,180,&,101264
$GPGGA,051751.00,,,,,0,00,99.99,,,,,,*61

@,!,180,&,101259
$GPGGA,051752.00,,,,,0,00,99.99,,,,,,*62

@,!,180,&,101253
$GPGGA,051753.00,,,,,0,00,99.99,,,,,,*63

@,!,180,&,101261
$GPGGA,051754.00,,,,,0,00,99.99,,,,,,*64

@,!,180,&,101259
$GPGGA,051755.00,,,,,0,00,99.99,,,,,,*65

@,!,180,&,101264
$GPGGA,051756.00,,,,,0,00,99.99,,,,,,*66

@,!,180,&,101275
$GPGGA,051757.03,,,,,0,00,99.99,,,,,,*64

@,!,180,&,101256
$GPGGA,051758.00,,,,,0,00,99.99,,,,,,*68

@,!,180,&,101258
$GPGGA,051759.00,,,,,0,00,99.99,,,,,,*69

@,!,180,&,101247
$GPGGA,051800.00,,,,,0,00,99.99,,,,,,*6A

@,!,179,&,101250
$GPGGA,051801.00,,,,,0,00,99.99,,,,,,*6B

@,!,179,&,101255
$GPGGA,051802.00,,,,,0,00,99.99,,,,,,*68

@,!,179,&,101255
$GPGGA,051803.00,,,,,0,00,99.99,,,,,,*69

@,!,179,&,101264
$GPGGA,051804.00,,,,,0,00,99.99,,,,,,*6E

@,!,178,&,101258
$GPGGA,051805.00,,,,,0,00,99.99,,,,,,*6F

@,!,178,&,101252
$GPGGA,051806.00,,,,,0,00,99.99,,,,,,*6C

@,!,178,&,101252
$GPGGA,051807.00,,,,,0,00,99.99,,,,,,*6D

@,!,178,&,101264
$GPGGA,051808.00,,,,,0,00,99.99,,,,,,*62

@,!,178,&,101252
$GPGGA,051809.00,,,,,0,00,99.99,,,,,,*63

@,!,178,&,101261
$GPGGA,051810.00,,,,,0,00,99.99,,,,,,*6B

@,!,178,&,101252
$GPGGA,051811.00,,,,,0,00,99.99,,,,,,*6A

@,!,178,&,101252
$GPGGA,051812.00,,,,,0,00,99.99,,,,,,*69

@,!,178,&,101255
$GPGGA,051813.00,,,,,0,00,99.99,,,,,,*68

@,!,178,&,101258
$GPGGA,051814.00,,,,,0,00,99.99,,,,,,*6F

@,!,178,&,101264
$GPGGA,051815.00,,,,,0,00,99.99,,,,,,*6E

@,!,178,&,101269
$GPGGA,051816.00,,,,,0,00,99.99,,,,,,*6D

@,!,178,&,101266
$GPGGA,051817.00,,,,,0,00,99.99,,,,,,*6C

@,!,178,&,101252
$GPGGA,051818.00,,,,,0,00,99.99,,,,,,*63

@,!,178,&,101269
$GPGGA,051819.00,,,,,0,00,99.99,,,,,,*62

@,!,178,&,101264
$GPGGA,051820.00,,,,,0,00,99.99,,,,,,*68

@,!,178,&,101266
$GPGGA,051820.98,,,,,0,00,99.99,,,,,,*69

@,!,178,&,101266
$GPGGA,051822.00,,,,,0,00,99.99,,,,,,*6A

@,!,178,&,101266
$GPGGA,051823.00,,,,,0,00,99.99,,,,,,*6B

@,!,178,&,101272
$GPGGA,051823.99,,,,,0,00,99.99,,,,,,*6B

@,!,178,&,101264
$GPGGA,051825.00,,,,,0,00,99.99,,,,,,*6D

@,!,178,&,101266
$GPGGA,051826.00,,,,,0,00,99.99,,,,,,*6E

@,!,178,&,101252
$GPGGA,051826.99,,,,,0,00,99.99,,,,,,*6E

@,!,178,&,101258
$GPGGA,051828.00,,,,,0,00,99.99,,,,,,*60

@,!,178,&,101269
$GPGGA,051829.00,,,,,0,00,99.99,,,,,,*61

@,!,178,&,101255
$GPGGA,051829.99,,,,,0,00,99.99,,,,,,*61

@,!,178,&,101266
$GPGGA,051831.00,,,,,0,00,99.99,,,,,,*68

@,!,178,&,101258
$GPGGA,051832.00,,,,,0,00,99.99,,,,,,*6B

@,!,177,&,101269
$GPGGA,051832.99,,,,,0,04,2.98,,,,,,*5C

@,!,178,&,101266
$GPGGA,051834.00,3827.54777,N,12241.00668,W,1,04,2.98,63.7,M,-29.0,M,,*52

@,!,177,&,101255
$GPGGA,051835.00,3827.54768,N,12241.00688,W,1,04,2.98,63.4,M,-29.0,M,,*50

@,!,177,&,101258
$GPGGA,051836.00,3827.54749,N,12241.00713,W,1,04,2.98,63.1,M,-29.0,M,,*56

@,!,177,&,101261
$GPGGA,051837.00,3827.54732,N,12241.00723,W,1,04,2.98,63.1,M,-29.0,M,,*58

@,!,178,&,101261
$GPGGA,051838.00,3827.54722,N,12241.00733,W,1,04,2.98,62.3,M,-29.0,M,,*54

@,!,177,&,101252
$GPGGA,051839.00,3827.54719,N,12241.00742,W,1,04,2.98,62.0,M,-29.0,M,,*58

@,!,177,&,101258
$GPGGA,051840.00,3827.54708,N,12241.00762,W,1,04,2.98,61.9,M,-29.0,M,,*5E

@,!,177,&,101272
$GPGGA,051841.00,3827.54691,N,12241.00784,W,1,04,2.98,61.1,M,-29.0,M,,*5E

@,!,177,&,101260
$GPGGA,051842.00,3827.54673,N,12241.00822,W,1,04,2.98,60.4,M,-29.0,M,,*56

@,!,177,&,101260
$GPGGA,051843.00,3827.54652,N,12241.00850,W,1,04,2.98,59.8,M,-29.0,M,,*57

@,!,176,&,101266
$GPGGA,051844.00,3827.54635,N,12241.00846,W,1,04,2.98,59.3,M,-29.0,M,,*5D

@,!,176,&,101252
$GPGGA,051845.00,3827.54617,N,12241.00855,W,1,04,2.98,58.2,M,-29.0,M,,*5E

@,!,177,&,101274
$GPGGA,051846.00,3827.54596,N,12241.00890,W,1,04,2.98,57.3,M,-29.0,M,,*50

@,!,176,&,101266
$GPGGA,051847.00,3827.54565,N,12241.00915,W,1,04,2.98,56.2,M,-29.0,M,,*51

@,!,176,&,101271
$GPGGA,051848.00,3827.54552,N,12241.00899,W,1,04,2.98,55.5,M,-29.0,M,,*5B

@,!,176,&,101260
$GPGGA,051849.00,3827.54559,N,12241.00865,W,1,04,2.98,55.3,M,-29.0,M,,*54

@,!,176,&,101260
$GPGGA,051850.00,3827.54554,N,12241.00867,W,1,04,2.98,55.9,M,-29.0,M,,*59

@,!,176,&,101268
$GPGGA,051851.00,3827.54548,N,12241.00846,W,1,04,2.98,56.0,M,-29.0,M,,*5C

@,!,176,&,101266
$GPGGA,051852.00,3827.54543,N,12241.00836,W,1,04,2.98,56.4,M,-29.0,M,,*57

@,!,176,&,101254
$GPGGA,051853.00,3827.54553,N,12241.00809,W,1,04,2.98,56.8,M,-29.0,M,,*57

@,!,176,&,101266
$GPGGA,051854.00,3827.54591,N,12241.00722,W,1,04,2.98,55.6,M,-29.0,M,,*55

@,!,176,&,101257
$GPGGA,051855.00,3827.54567,N,12241.00737,W,1,04,2.98,57.8,M,-29.0,M,,*55

@,!,176,&,101271
