$GPGGA,,,,,,0,00,99.99,,,,,,*48

@,!,201,&,100766

$GPGGA,,,,,,0,00,99.99,,,,,,*48

@,!,201,&,100754

$GPGGA,,,,,,0,00,99.99,,,,,,*48

@,!,201,&,100766

$GPGGA,,,,,,0,00,99.99,,,,,,*48

@,!,201,&,100757

$GPGGA,,,,,,0,00,99.99,,,,,,*48

@,!,201,&,100757

$GPGGA,,,,,,0,00,99.99,,,,,,*48

@,!,201,&,100757

$GPGGA,,,,,,0,00,99.99,,,,,,*48

@,!,201,&,100746

$GPGGA,,,,,,0,00,99.99,,,,,,*48

@,!,201,&,100754

$GPGGA,172135.00,,,,,0,00,99.99,,,,,,*65

@,!,201,&,100751

$GPGGA,172136.00,,,,,0,00,99.99,,,,,,*66

@,!,202,&,100768

$GPGGA,172137.00,,,,,0,00,99.99,,,,,,*67

@,!,202,&,100760

$GPGGA,172138.00,,,,,0,00,99.99,,,,,,*68

@,!,202,&,100760

$GPGGA,172139.00,,,,,0,00,99.99,,,,,,*69

@,!,202,&,100754

$GPGGA,172140.00,,,,,0,00,99.99,,,,,,*67

@,!,202,&,100754

$GPGGA,172141.00,,,,,0,00,99.99,,,,,,*66

@,!,202,&,100749

$GPGGA,172142.00,,,,,0,00,99.99,,,,,,*65

@,!,202,&,100754

$GPGGA,172143.00,,,,,0,00,99.99,,,,,,*64

@,!,202,&,100752

$GPGGA,172144.00,,,,,0,00,99.99,,,,,,*63

@,!,202,&,100754

$GPGGA,172145.00,,,,,0,00,99.99,,,,,,*62

@,!,202,&,100760

$GPGGA,172146.00,,,,,0,00,99.99,,,,,,*61

@,!,202,&,100760

$GPGGA,172147.00,,,,,0,00,99.99,,,,,,*60

@,!,201,&,100746

$GPGGA,172148.00,,,,,0,00,99.99,,,,,,*6F

@,!,201,&,100746

$GPGGA,172149.00,,,,,0,00,99.99,,,,,,*6E

@,!,202,&,100754

$GPGGA,172150.00,,,,,0,00,99.99,,,,,,*66

@,!,202,&,100760

$GPGGA,172151.00,,,,,0,00,99.99,,,,,,*67

@,!,202,&,100751

$GPGGA,172152.00,,,,,0,00,99.99,,,,,,*64

@,!,201,&,100757

$GPGGA,172153.00,,,,,0,00,99.99,,,,,,*65

@,!,201,&,100740

$GPGGA,172154.00,,,,,0,00,99.99,,,,,,*62

@,!,202,&,100754

$GPGGA,172155.00,,,,,0,00,99.99,,,,,,*63

@,!,202,&,100757

$GPGGA,172156.00,,,,,0,00,99.99,,,,,,*60

@,!,202,&,100752

$GPGGA,172156.99,,,,,0,00,99.99,,,,,,*60

@,!,202,&,100766

$GPGGA,172158.00,,,,,0,00,99.99,,,,,,*6E

@,!,202,&,100760

$GPGGA,172159.00,,,,,0,00,99.99,,,,,,*6F

@,!,202,&,100766

$GPGGA,172159.99,,,,,0,00,99.99,,,,,,*6F

@,!,202,&,100760

$GPGGA,172201.00,,,,,0,00,99.99,,,,,,*61

@,!,202,&,100763

$GPGGA,172202.00,,,,,0,00,99.99,,,,,,*62

@,!,201,&,100754

$GPGGA,172202.99,,,,,0,00,99.99,,,,,,*62

@,!,201,&,100771

$GPGGA,172204.00,,,,,0,00,99.99,,,,,,*64

@,!,201,&,100760

$GPGGA,172205.00,,,,,0,00,99.99,,,,,,*65

@,!,201,&,100760

$GPGGA,172205.99,,,,,0,00,99.99,,,,,,*65

@,!,201,&,100768

$GPGGA,172207.00,,,,,0,00,99.99,,,,,,*67

@,!,202,&,100766

$GPGGA,172207.99,,,,,0,00,99.99,,,,,,*67

@,!,202,&,100760

$GPGGA,172208.99,,,,,0,00,99.99,,,,,,*68

@,!,202,&,100766

$GPGGA,172210.00,,,,,0,00,99.99,,,,,,*61

@,!,202,&,100763

$GPGGA,172211.00,,,,,0,00,99.99,,,,,,*60

@,!,202,&,100766

$GPGGA,172211.99,,,,,0,00,99.99,,,,,,*60

@,!,202,&,100760

$GPGGA,172213.00,,,,,0,00,99.99,,,,,,*62

@,!,202,&,100771

$GPGGA,172214.00,,,,,0,00,99.99,,,,,,*65

@,!,202,&,100769

$GPGGA,172214.99,,,,,0,00,99.99,,,,,,*65

@,!,202,&,100769

$GPGGA,172216.00,,,,,0,00,99.99,,,,,,*67

@,!,202,&,100766

$GPGGA,172217.00,,,,,0,00,99.99,,,,,,*66

@,!,202,&,100757

$GPGGA,172217.99,,,,,0,00,99.99,,,,,,*66

@,!,202,&,100760

$GPGGA,172219.00,,,,,0,00,99.99,,,,,,*68

@,!,202,&,100774

$GPGGA,172220.00,,,,,0,00,99.99,,,,,,*62

@,!,202,&,100763

$GPGGA,172220.99,,,,,0,00,99.99,,,,,,*62

@,!,202,&,100769

$GPGGA,172222.00,,,,,0,00,99.99,,,,,,*60

@,!,203,&,100760

$GPGGA,172223.00,,,,,0,00,99.99,,,,,,*61

@,!,203,&,100757

$GPGGA,172223.99,,,,,0,00,99.99,,,,,,*61

@,!,203,&,100777

$GPGGA,172225.00,,,,,0,00,99.99,,,,,,*67

@,!,203,&,100774

$GPGGA,172226.00,,,,,0,00,99.99,,,,,,*64

@,!,203,&,100772

$GPGGA,172226.99,,,,,0,00,99.99,,,,,,*64

@,!,203,&,100769

$GPGGA,172228.00,,,,,0,00,99.99,,,,,,*6A

@,!,203,&,100772

$GPGGA,172229.00,,,,,0,00,99.99,,,,,,*6B

@,!,203,&,100772

$GPGGA,172229.99,,,,,0,00,99.99,,,,,,*6B

@,!,203,&,100766

$GPGGA,172231.00,,,,,0,00,99.99,,,,,,*62

@,!,203,&,100772

$GPGGA,172232.00,,,,,0,00,99.99,,,,,,*61

@,!,204,&,100766

$GPGGA,172233.00,,,,,0,04,4.16,,,,,,*57

@,!,203,&,100766

$GPGGA,172234.00,,,,,0,04,4.16,,,,,,*50

@,!,203,&,100757

$GPGGA,172235.00,3456.57773,N,12025.38058,W,1,04,4.16,56.1,M,-32.9,M,,*59

@,!,204,&,100763

$GPGGA,172236.00,3456.57665,N,12025.38054,W,1,04,4.16,55.4,M,-32.9,M,,*56

@,!,204,&,100769

$GPGGA,172237.00,3456.57621,N,12025.38058,W,1,04,4.17,55.0,M,-32.9,M,,*5E

@,!,203,&,100766

$GPGGA,172238.00,3456.57611,N,12025.38066,W,1,04,4.17,54.6,M,-32.9,M,,*58

@,!,203,&,100755

$GPGGA,172239.00,3456.57601,N,12025.38054,W,1,04,4.17,55.1,M,-32.9,M,,*5F

@,!,203,&,100772

$GPGGA,172240.00,3456.57633,N,12025.38064,W,1,04,4.17,54.9,M,-32.9,M,,*5A

@,!,203,&,100769

$GPGGA,172241.00,3456.57601,N,12025.38053,W,1,04,4.18,55.0,M,-32.9,M,,*59

@,!,203,&,100769

$GPGGA,172242.00,3456.57585,N,12025.38051,W,1,04,4.18,55.0,M,-32.9,M,,*57

@,!,203,&,100774

$GPGGA,172243.00,3456.57596,N,12025.38051,W,1,04,4.18,54.8,M,-32.9,M,,*5D

@,!,203,&,100763

$GPGGA,172244.00,3456.57609,N,12025.38044,W,1,04,4.18,55.1,M,-32.9,M,,*53

@,!,203,&,100763

$GPGGA,172245.00,3456.57624,N,12025.38048,W,1,04,4.18,55.7,M,-32.9,M,,*57

@,!,203,&,100757

$GPGGA,172246.00,3456.57648,N,12025.38041,W,1,04,4.19,56.6,M,-32.9,M,,*54

@,!,203,&,100757

$GPGGA,172247.00,3456.57669,N,12025.38028,W,1,04,4.19,57.3,M,-32.9,M,,*5D

@,!,203,&,100774

$GPGGA,172248.00,3456.57698,N,12025.38013,W,1,04,4.19,58.4,M,-32.9,M,,*5C

@,!,203,&,100749

$GPGGA,172249.00,3456.57702,N,12025.37967,W,1,04,4.19,59.1,M,-32.9,M,,*5E

@,!,203,&,100752

$GPGGA,172250.00,3456.57701,N,12025.37926,W,1,04,4.19,60.0,M,-32.9,M,,*5B

@,!,203,&,100769

$GPGGA,172251.00,3456.57706,N,12025.37895,W,1,04,4.20,60.6,M,-32.9,M,,*58

@,!,203,&,100777

$GPGGA,172252.00,3456.57688,N,12025.37865,W,1,04,4.20,60.3,M,-32.9,M,,*56

@,!,203,&,100760

$GPGGA,172253.00,3456.57661,N,12025.37864,W,1,04,4.20,59.5,M,-32.9,M,,*5D

@,!,203,&,100757

$GPGGA,172254.00,3456.57644,N,12025.37905,W,1,04,4.20,58.2,M,-32.9,M,,*5D

@,!,203,&,100766

$GPGGA,172255.00,3456.57687,N,12025.37920,W,1,04,4.20,57.4,M,-32.9,M,,*5D

@,!,203,&,100757

$GPGGA,172256.00,3456.57668,N,12025.37999,W,1,04,4.21,57.5,M,-32.9,M,,*5D

@,!,202,&,100763

$GPGGA,172257.00,3456.57620,N,12025.38046,W,1,04,4.21,56.6,M,-32.9,M,,*56

@,!,202,&,100763

$GPGGA,172258.00,3456.57733,N,12025.37986,W,1,04,4.21,58.6,M,-32.9,M,,*5E

@,!,202,&,100771

$GPGGA,172259.00,3456.57786,N,12025.37958,W,1,04,4.21,58.5,M,-32.9,M,,*51

@,!,202,&,100757

$GPGGA,172300.00,3456.57912,N,12025.38002,W,1,04,4.22,57.2,M,-32.9,M,,*5D

@,!,202,&,100771

$GPGGA,172301.00,3456.58214,N,12025.38172,W,1,04,4.22,57.3,M,-32.9,M,,*59

@,!,201,&,100743

$GPGGA,172302.00,3456.58573,N,12025.38279,W,1,04,4.22,58.7,M,-32.9,M,,*5F

@,!,202,&,100760

$GPGGA,172303.00,3456.58882,N,12025.38321,W,1,04,4.22,60.1,M,-32.9,M,,*5C

@,!,201,&,100749

$GPGGA,172304.00,3456.59346,N,12025.38262,W,1,04,4.22,66.1,M,-32.9,M,,*59

@,!,202,&,100754

$GPGGA,172305.00,3456.59781,N,12025.38202,W,1,04,4.23,73.4,M,-32.9,M,,*51

@,!,202,&,100752

$GPGGA,172306.00,3456.60105,N,12025.38161,W,1,04,4.23,79.2,M,-32.9,M,,*58

@,!,202,&,100757

$GPGGA,172307.00,3456.60378,N,12025.38125,W,1,04,4.23,83.3,M,-32.9,M,,*55

@,!,203,&,100757

$GPGGA,172308.00,3456.60609,N,12025.38054,W,1,04,4.23,86.6,M,-32.9,M,,*5E

@,!,203,&,100746

$GPGGA,172309.00,3456.60805,N,12025.38011,W,1,04,4.23,88.4,M,-32.9,M,,*50

@,!,203,&,100749

$GPGGA,172310.00,3456.60962,N,12025.37970,W,1,04,4.24,89.6,M,-32.9,M,,*5D

@,!,204,&,100760

$GPGGA,172311.00,3456.61140,N,12025.37938,W,1,04,4.24,92.5,M,-32.9,M,,*50

@,!,203,&,100735

$GPGGA,172312.00,3456.61300,N,12025.37928,W,1,04,4.24,94.5,M,-32.9,M,,*52

@,!,203,&,100752

$GPGGA,172313.00,,,,,0,00,99.99,,,,,,*63

@,!,204,&,100775

$GPGGA,172314.00,,,,,0,00,99.99,,,,,,*64

@,!,204,&,100777

$GPGGA,172315.00,,,,,0,00,99.99,,,,,,*65

@,!,204,&,100783

$GPGGA,172316.00,,,,,0,00,99.99,,,,,,*66

@,!,205,&,100763

$GPGGA,172317.00,,,,,0,04,4.25,,,,,,*50

@,!,205,&,100778

$GPGGA,172318.00,,,,,0,04,4.25,,,,,,*5F

@,!,205,&,100778

$GPGGA,172319.00,,,,,0,04,4.26,,,,,,*5D

@,!,206,&,100778

$GPGGA,172320.00,,,,,0,04,4.26,,,,,,*57

@,!,206,&,100766

$GPGGA,172321.00,,,,,0,04,4.26,,,,,,*56

@,!,206,&,100772

$GPGGA,172322.00,,,,,0,04,4.26,,,,,,*55

@,!,206,&,100772

$GPGGA,172323.00,,,,,0,04,4.27,,,,,,*55

@,!,207,&,100769

$GPGGA,172324.00,,,,,0,04,4.27,,,,,,*52

@,!,207,&,100778

$GPGGA,172325.00,,,,,0,04,4.27,,,,,,*53

@,!,207,&,100767

$GPGGA,172326.00,,,,,0,04,4.27,,,,,,*50

@,!,207,&,100784

$GPGGA,172327.00,,,,,0,04,4.27,,,,,,*51

@,!,207,&,100769

$GPGGA,172328.00,3456.58428,N,12025.37895,W,1,04,4.28,84.6,M,-32.9,M,,*55

@,!,207,&,100775

$GPGGA,172329.00,3456.58312,N,12025.38003,W,1,04,4.28,80.0,M,-32.9,M,,*50

@,!,207,&,100769

$GPGGA,172330.00,3456.58284,N,12025.38125,W,1,04,4.28,77.4,M,-32.9,M,,*5F

@,!,207,&,100769

$GPGGA,172331.00,3456.58246,N,12025.38178,W,1,04,4.28,74.6,M,-32.9,M,,*59

@,!,208,&,100772

$GPGGA,172332.00,3456.58229,N,12025.38142,W,1,04,4.29,71.9,M,-32.9,M,,*51

@,!,208,&,100775

$GPGGA,172333.00,3456.58130,N,12025.38247,W,1,04,4.29,69.9,M,-32.9,M,,*54

@,!,208,&,100761

$GPGGA,172334.00,3456.58122,N,12025.38372,W,1,04,4.29,69.1,M,-32.9,M,,*5F

@,!,208,&,100775

$GPGGA,172335.00,3456.58045,N,12025.38412,W,1,04,4.29,65.2,M,-32.9,M,,*50

@,!,208,&,100755

$GPGGA,172336.00,3456.57931,N,12025.38527,W,1,04,4.29,62.1,M,-32.9,M,,*55

@,!,209,&,100778

$GPGGA,172337.00,3456.57971,N,12025.38670,W,1,04,4.30,61.4,M,-32.9,M,,*5F

@,!,209,&,100778

$GPGGA,172338.00,3456.57866,N,12025.38801,W,1,04,4.30,57.6,M,-32.9,M,,*58

@,!,209,&,100775

$GPGGA,172339.00,3456.57729,N,12025.38762,W,1,04,4.30,54.7,M,-32.9,M,,*55

@,!,209,&,100773

$GPGGA,172339.00,3456.57671,N,12025.38705,W,1,04,4.30,53.1,M,-32.9,M,,*59

@,!,210,&,100773

$GPGGA,172340.00,3456.57633,N,12025.38634,W,1,04,4.30,52.4,M,-32.9,M,,*56

@,!,210,&,100776

$GPGGA,172341.00,3456.57681,N,12025.38535,W,1,04,4.31,54.4,M,-32.9,M,,*5B

@,!,210,&,100784

$GPGGA,172342.00,3456.57682,N,12025.38455,W,1,04,4.31,56.3,M,-32.9,M,,*59

@,!,210,&,100773

$GPGGA,172343.00,3456.57702,N,12025.38407,W,1,04,4.31,57.5,M,-32.9,M,,*51

@,!,211,&,100770

$GPGGA,172344.00,3456.57656,N,12025.38381,W,1,04,4.31,56.2,M,-32.9,M,,*59

@,!,211,&,100781

$GPGGA,172345.00,3456.57539,N,12025.38328,W,1,04,4.32,55.7,M,-32.9,M,,*54

@,!,211,&,100776

$GPGGA,172346.00,3456.57576,N,12025.38261,W,1,04,4.32,57.4,M,-32.9,M,,*51

@,!,211,&,100776

$GPGGA,172347.00,,,,,0,00,99.99,,,,,,*62

@,!,211,&,100767

$GPGGA,172348.00,,,,,0,00,99.99,,,,,,*6D

@,!,211,&,100773

$GPGGA,172349.00,,,,,0,00,99.99,,,,,,*6C

@,!,212,&,100773

$GPGGA,172350.00,,,,,0,00,99.99,,,,,,*64

@,!,212,&,100776

$GPGGA,172351.00,,,,,0,00,99.99,,,,,,*65

@,!,212,&,100770

$GPGGA,172352.00,,,,,0,00,99.99,,,,,,*66

@,!,212,&,100784

$GPGGA,172353.00,,,,,0,00,99.99,,,,,,*67

@,!,212,&,100776

$GPGGA,172354.00,,,,,0,00,99.99,,,,,,*60

@,!,213,&,100773

$GPGGA,172355.00,,,,,0,04,4.34,,,,,,*56

@,!,213,&,100768

$GPGGA,172356.00,,,,,0,04,4.34,,,,,,*55

@,!,213,&,100765

$GPGGA,172357.00,3456.58298,N,12025.38199,W,1,04,4.34,71.2,M,-32.9,M,,*59

@,!,213,&,100785

$GPGGA,172358.00,3456.58325,N,12025.38163,W,1,04,4.34,72.0,M,-32.9,M,,*55

@,!,214,&,100776

$GPGGA,172359.00,3456.58202,N,12025.38148,W,1,04,4.35,68.8,M,-32.9,M,,*5B

@,!,214,&,100788

$GPGGA,172400.00,3456.58155,N,12025.38143,W,1,04,4.35,67.6,M,-32.9,M,,*5B

@,!,214,&,100782

$GPGGA,172401.00,3456.58169,N,12025.38055,W,1,04,4.35,67.0,M,-32.9,M,,*55

@,!,214,&,100779

$GPGGA,172402.00,3456.58216,N,12025.37997,W,1,04,4.35,67.5,M,-32.9,M,,*50

@,!,214,&,100782

$GPGGA,172403.00,3456.58162,N,12025.38020,W,1,04,4.36,67.9,M,-32.9,M,,*54

@,!,215,&,100768

$GPGGA,172404.00,3456.58093,N,12025.38070,W,1,04,4.36,69.0,M,-32.9,M,,*5E

@,!,215,&,100771

$GPGGA,172405.00,3456.58076,N,12025.38083,W,1,04,4.36,69.5,M,-32.9,M,,*5D

@,!,215,&,100776

$GPGGA,172406.00,3456.57930,N,12025.38076,W,1,04,4.36,65.8,M,-32.9,M,,*51

@,!,215,&,100788

$GPGGA,172407.00,3456.57929,N,12025.38089,W,1,04,4.36,65.4,M,-32.9,M,,*54

@,!,215,&,100771

$GPGGA,172408.00,3456.57865,N,12025.38136,W,1,04,4.37,63.7,M,-32.9,M,,*53

@,!,216,&,100774

$GPGGA,172409.00,3456.57868,N,12025.38139,W,1,04,4.37,63.2,M,-32.9,M,,*55

@,!,216,&,100777

$GPGGA,172410.00,3456.57764,N,12025.38216,W,1,04,4.37,62.0,M,-32.9,M,,*53

@,!,216,&,100780

$GPGGA,172411.00,3456.57577,N,12025.38213,W,1,04,4.37,60.2,M,-32.9,M,,*57

@,!,217,&,100780

$GPGGA,172412.00,3456.57355,N,12025.38033,W,1,04,4.38,58.5,M,-32.9,M,,*51

@,!,217,&,100777

$GPGGA,172413.00,3456.57249,N,12025.37921,W,1,04,4.38,57.1,M,-32.9,M,,*52

@,!,217,&,100777

$GPGGA,172414.00,3456.57248,N,12025.37920,W,1,04,4.38,56.4,M,-32.9,M,,*51

@,!,217,&,100777

$GPGGA,172415.00,3456.57269,N,12025.37977,W,1,04,4.38,56.2,M,-32.9,M,,*57

@,!,217,&,100783

$GPGGA,172416.00,3456.57380,N,12025.38006,W,1,04,4.39,57.3,M,-32.9,M,,*53

@,!,218,&,100766

$GPGGA,172417.00,3456.57451,N,12025.38126,W,1,04,4.39,56.6,M,-32.9,M,,*5E

@,!,218,&,100777

$GPGGA,172418.00,3456.57548,N,12025.38155,W,1,04,4.39,56.1,M,-32.9,M,,*5B

@,!,218,&,100774

$GPGGA,172419.00,3456.57656,N,12025.38144,W,1,04,4.39,57.3,M,-32.9,M,,*55

@,!,218,&,100766

$GPGGA,172420.00,3456.57754,N,12025.38113,W,1,04,4.39,57.8,M,-32.9,M,,*55

@,!,218,&,100774

$GPGGA,172421.00,3456.57820,N,12025.38072,W,1,04,4.40,58.8,M,-32.9,M,,*5F

@,!,219,&,100783

$GPGGA,172422.00,3456.57842,N,12025.37980,W,1,04,4.40,59.3,M,-32.9,M,,*59

@,!,219,&,100769

$GPGGA,172423.00,3456.57869,N,12025.37898,W,1,04,4.40,60.0,M,-32.9,M,,*50

@,!,219,&,100766

$GPGGA,172424.00,3456.57894,N,12025.37815,W,1,04,4.40,61.6,M,-32.9,M,,*57

@,!,219,&,100774

$GPGGA,172425.00,3456.58062,N,12025.37673,W,1,04,4.41,67.0,M,-32.9,M,,*57

@,!,219,&,100769

$GPGGA,172426.00,3456.58285,N,12025.37603,W,1,04,4.41,73.0,M,-32.9,M,,*5D

@,!,220,&,100780

$GPGGA,172427.00,3456.58424,N,12025.37587,W,1,04,4.41,76.1,M,-32.9,M,,*5A

@,!,220,&,100763

$GPGGA,172428.00,3456.58434,N,12025.37591,W,1,04,4.41,76.3,M,-32.9,M,,*51

@,!,220,&,100766

$GPGGA,172429.00,3456.58443,N,12025.37624,W,1,04,4.41,76.6,M,-32.9,M,,*58

@,!,220,&,100769

$GPGGA,172430.00,3456.58466,N,12025.37583,W,1,04,4.42,78.3,M,-32.9,M,,*51

@,!,221,&,100769

$GPGGA,172431.00,3456.58426,N,12025.37646,W,1,04,4.42,77.1,M,-32.9,M,,*53

@,!,221,&,100766

$GPGGA,172432.00,3456.58284,N,12025.37744,W,1,04,4.42,71.2,M,-32.9,M,,*58

@,!,221,&,100772

$GPGGA,172433.00,3456.58235,N,12025.37780,W,1,04,4.42,67.3,M,-32.9,M,,*5D

@,!,221,&,100775

$GPGGA,172434.00,3456.58207,N,12025.37823,W,1,04,4.43,65.4,M,-32.9,M,,*59

@,!,222,&,100769

$GPGGA,172435.00,3456.58128,N,12025.37870,W,1,04,4.43,63.6,M,-32.9,M,,*54

@,!,222,&,100761

$GPGGA,172436.00,3456.57979,N,12025.37945,W,1,04,4.43,60.8,M,-32.9,M,,*5E

@,!,222,&,100766

$GPGGA,172437.00,3456.57934,N,12025.37965,W,1,04,4.43,59.5,M,-32.9,M,,*53

@,!,222,&,100763

$GPGGA,172438.00,3456.57894,N,12025.37972,W,1,04,4.44,57.7,M,-32.9,M,,*5A

@,!,222,&,100763

$GPGGA,172439.00,3456.57826,N,12025.37974,W,1,04,4.44,55.6,M,-32.9,M,,*57

@,!,223,&,100766

$GPGGA,172440.00,3456.57771,N,12025.38014,W,1,04,4.44,55.4,M,-32.9,M,,*56

@,!,223,&,100766

$GPGGA,172441.00,3456.57780,N,12025.38055,W,1,04,4.44,57.8,M,-32.9,M,,*52

@,!,223,&,100749

$GPGGA,172442.00,3456.57743,N,12025.38080,W,1,04,4.44,58.2,M,-32.9,M,,*53

@,!,223,&,100747

$GPGGA,172443.00,3456.57716,N,12025.38126,W,1,04,4.45,57.5,M,-32.9,M,,*56

@,!,223,&,100747

$GPGGA,172444.00,3456.57695,N,12025.38157,W,1,04,4.45,56.8,M,-32.9,M,,*51

@,!,223,&,100752

$GPGGA,172445.00,3456.57730,N,12025.38131,W,1,04,4.45,58.1,M,-32.9,M,,*59

@,!,223,&,100752

$GPGGA,172446.00,3456.57952,N,12025.38003,W,1,04,4.45,64.0,M,-32.9,M,,*5E

@,!,223,&,100747

$GPGGA,172447.00,3456.57974,N,12025.38025,W,1,04,4.46,63.6,M,-32.9,M,,*5D

@,!,224,&,100752

$GPGGA,172448.00,3456.57922,N,12025.38031,W,1,04,4.46,61.4,M,-32.9,M,,*54

@,!,224,&,100755

$GPGGA,172449.00,3456.57814,N,12025.38095,W,1,04,4.46,58.7,M,-32.9,M,,*56

@,!,224,&,100750

$GPGGA,172450.00,3456.57697,N,12025.38117,W,1,04,4.46,55.7,M,-32.9,M,,*5D

@,!,224,&,100741

$GPGGA,172451.00,3456.57692,N,12025.38108,W,1,04,4.47,59.4,M,-32.9,M,,*59

@,!,224,&,100735

$GPGGA,172452.00,3456.57736,N,12025.38078,W,1,04,4.47,60.6,M,-32.9,M,,*5B

@,!,224,&,100738

$GPGGA,172453.00,3456.57716,N,12025.38081,W,1,04,4.47,61.5,M,-32.9,M,,*5C

@,!,224,&,100738

$GPGGA,172454.00,3456.57698,N,12025.38102,W,1,04,4.47,63.1,M,-32.9,M,,*50

@,!,224,&,100733

$GPGGA,172455.00,3456.57651,N,12025.38101,W,1,04,4.47,63.3,M,-32.9,M,,*55

@,!,224,&,100730

$GPGGA,172456.00,3456.57740,N,12025.38029,W,1,04,4.48,64.8,M,-32.9,M,,*5F

@,!,225,&,100727

$GPGGA,172457.00,3456.57858,N,12025.37975,W,1,04,4.48,66.3,M,-32.9,M,,*5E

@,!,225,&,100724

$GPGGA,172458.00,3456.57933,N,12025.37972,W,1,04,4.48,67.1,M,-32.9,M,,*59

@,!,225,&,100718

$GPGGA,172459.00,3456.57910,N,12025.38007,W,1,04,4.48,66.5,M,-32.9,M,,*58

@,!,225,&,100716

$GPGGA,172500.00,3456.57878,N,12025.38053,W,1,04,4.49,65.9,M,-32.9,M,,*55

@,!,225,&,100704

$GPGGA,172501.00,3456.57873,N,12025.38049,W,1,04,4.49,67.5,M,-32.9,M,,*5A

@,!,225,&,100716

$GPGGA,172502.00,3456.57865,N,12025.38052,W,1,04,4.49,68.7,M,-32.9,M,,*59

@,!,225,&,100701

$GPGGA,172503.00,3456.57741,N,12025.38127,W,1,04,4.49,64.6,M,-32.9,M,,*5F

@,!,225,&,100696

$GPGGA,172504.00,3456.57766,N,12025.38147,W,1,04,4.50,66.6,M,-32.9,M,,*51

@,!,225,&,100702

$GPGGA,172505.00,3456.57728,N,12025.38190,W,1,04,4.50,65.2,M,-32.9,M,,*57

@,!,225,&,100693

$GPGGA,172506.00,3456.57660,N,12025.38223,W,1,04,4.50,62.7,M,-32.9,M,,*50

@,!,225,&,100690

$GPGGA,172507.00,3456.57607,N,12025.38301,W,1,04,4.50,61.5,M,-32.9,M,,*50

@,!,225,&,100687

$GPGGA,172508.00,3456.57633,N,12025.38221,W,1,04,4.50,61.2,M,-32.9,M,,*5C

@,!,225,&,100679

$GPGGA,172509.00,3456.57687,N,12025.38122,W,1,04,4.51,62.2,M,-32.9,M,,*50

@,!,225,&,100687

$GPGGA,172510.00,3456.57689,N,12025.38036,W,1,04,4.51,63.1,M,-32.9,M,,*50

@,!,225,&,100673

$GPGGA,172511.00,3456.57704,N,12025.38192,W,1,04,4.51,65.0,M,-32.9,M,,*5D

@,!,225,&,100665

$GPGGA,172512.00,3456.57767,N,12025.38294,W,1,04,4.51,69.4,M,-32.9,M,,*56

@,!,225,&,100662

$GPGGA,172513.00,3456.57686,N,12025.38324,W,1,04,4.52,68.6,M,-32.9,M,,*53

@,!,225,&,100651

$GPGGA,172514.00,3456.57706,N,12025.38309,W,1,04,4.52,68.7,M,-32.9,M,,*53

@,!,225,&,100659

$GPGGA,172515.00,3456.57710,N,12025.38277,W,1,04,4.52,69.4,M,-32.9,M,,*5F

@,!,225,&,100656

$GPGGA,172516.00,3456.57626,N,12025.38292,W,1,04,4.52,68.2,M,-32.9,M,,*54

@,!,225,&,100651

$GPGGA,172517.00,3456.57588,N,12025.38318,W,1,04,4.53,66.9,M,-32.9,M,,*55

@,!,225,&,100634

$GPGGA,172518.00,3456.57762,N,12025.38123,W,1,04,4.53,70.6,M,-32.9,M,,*5E

@,!,225,&,100640

$GPGGA,172519.00,3456.57683,N,12025.38103,W,1,04,4.53,68.8,M,-32.9,M,,*54

@,!,225,&,100626

$GPGGA,172520.00,3456.57548,N,12025.38147,W,1,04,4.53,64.4,M,-32.9,M,,*5A

@,!,225,&,100631

$GPGGA,172521.00,3456.57532,N,12025.38154,W,1,04,4.53,64.2,M,-32.9,M,,*52

@,!,225,&,100623

$GPGGA,172522.00,3456.57460,N,12025.38196,W,1,04,4.54,61.8,M,-32.9,M,,*51

@,!,225,&,100623

$GPGGA,172523.00,3456.57438,N,12025.38227,W,1,04,4.54,62.9,M,-32.9,M,,*56

@,!,225,&,100614

$GPGGA,172524.00,3456.57390,N,12025.38239,W,1,04,4.54,62.7,M,-32.9,M,,*55

@,!,226,&,100609

$GPGGA,172525.00,3456.57427,N,12025.38232,W,1,04,4.54,62.9,M,-32.9,M,,*5A

@,!,226,&,100603

$GPGGA,172526.00,3456.57456,N,12025.38227,W,1,04,4.55,63.5,M,-32.9,M,,*57

@,!,226,&,100597

$GPGGA,172527.00,3456.57472,N,12025.38231,W,1,04,4.55,63.6,M,-32.9,M,,*54

@,!,226,&,100586

$GPGGA,172528.00,3456.57525,N,12025.38260,W,1,04,4.55,65.2,M,-32.9,M,,*5E

@,!,225,&,100578

$GPGGA,172529.00,3456.57545,N,12025.38275,W,1,04,4.55,66.6,M,-32.9,M,,*5A

@,!,225,&,100586

$GPGGA,172530.00,3456.57530,N,12025.38285,W,1,04,4.56,66.6,M,-32.9,M,,*5C

@,!,226,&,100575

$GPGGA,172531.00,3456.57494,N,12025.38306,W,1,04,4.56,66.7,M,-32.9,M,,*59

@,!,226,&,100570

$GPGGA,172532.00,3456.57365,N,12025.38315,W,1,04,4.56,65.2,M,-32.9,M,,*57

@,!,226,&,100570

$GPGGA,172533.00,3456.57150,N,12025.38460,W,1,04,4.56,60.7,M,-32.9,M,,*57

@,!,226,&,100556

$GPGGA,172534.00,3456.57009,N,12025.38555,W,1,04,4.57,59.5,M,-32.9,M,,*53

@,!,226,&,100544

$GPGGA,172535.00,3456.56622,N,12025.38780,W,1,04,4.57,50.1,M,-32.9,M,,*5B

@,!,226,&,100541

$GPGGA,172536.00,3456.56573,N,12025.38831,W,1,04,4.57,47.3,M,-32.9,M,,*5E

@,!,226,&,100539

$GPGGA,172537.00,3456.56583,N,12025.38856,W,1,04,4.57,46.6,M,-32.9,M,,*55

@,!,226,&,100533

$GPGGA,172538.00,3456.56656,N,12025.38873,W,1,04,4.58,47.9,M,-32.9,M,,*57

@,!,226,&,100527

$GPGGA,172539.00,3456.56714,N,12025.38869,W,1,04,4.58,49.4,M,-32.9,M,,*59

@,!,226,&,100527

$GPGGA,172540.00,3456.56794,N,12025.38840,W,1,04,4.58,50.4,M,-32.9,M,,*5C

@,!,226,&,100521

$GPGGA,172541.00,3456.56872,N,12025.38764,W,1,04,4.58,51.6,M,-32.9,M,,*50

@,!,227,&,100519

$GPGGA,172542.00,3456.56966,N,12025.38693,W,1,04,4.58,52.2,M,-32.9,M,,*59

@,!,227,&,100513

$GPGGA,172543.00,3456.57075,N,12025.38729,W,1,04,4.59,51.4,M,-32.9,M,,*56

@,!,227,&,100513

$GPGGA,172544.00,3456.57175,N,12025.38719,W,1,04,4.59,51.7,M,-32.9,M,,*50

@,!,227,&,100513

$GPGGA,172545.00,3456.57267,N,12025.38675,W,1,04,4.59,53.3,M,-32.9,M,,*5C

@,!,227,&,100504

$GPGGA,172546.00,3456.57326,N,12025.38713,W,1,04,4.59,55.2,M,-32.9,M,,*5D

@,!,227,&,100499

$GPGGA,172547.00,3456.57308,N,12025.38792,W,1,04,4.60,56.5,M,-32.9,M,,*57

@,!,227,&,100496

$GPGGA,172548.00,3456.57429,N,12025.38641,W,1,04,4.60,61.9,M,-32.9,M,,*5B

@,!,227,&,100485

$GPGGA,172549.00,3456.57437,N,12025.38604,W,1,04,4.60,61.4,M,-32.9,M,,*59

@,!,227,&,100496

$GPGGA,172550.00,3456.57486,N,12025.38570,W,1,04,4.60,61.7,M,-32.9,M,,*58

@,!,227,&,100485

$GPGGA,172551.00,3456.57597,N,12025.38451,W,1,04,4.61,65.9,M,-32.9,M,,*51

@,!,227,&,100474

$GPGGA,172552.00,3456.57665,N,12025.38340,W,1,04,4.61,69.8,M,-32.9,M,,*56

@,!,226,&,100460

$GPGGA,172553.00,3456.57715,N,12025.38085,W,1,04,4.61,74.6,M,-32.9,M,,*59

@,!,226,&,100468

$GPGGA,172554.00,3456.57625,N,12025.37893,W,1,04,4.61,75.5,M,-32.9,M,,*5E

@,!,226,&,100451

$GPGGA,172555.00,3456.57532,N,12025.37756,W,1,04,4.62,75.8,M,-32.9,M,,*52

@,!,226,&,100443

$GPGGA,172556.00,3456.57479,N,12025.37621,W,1,04,4.62,77.0,M,-32.9,M,,*54

@,!,226,&,100440

$GPGGA,172557.00,3456.57514,N,12025.37490,W,1,04,4.62,77.2,M,-32.9,M,,*55

@,!,225,&,100437

$GPGGA,172558.00,3456.57552,N,12025.37467,W,1,04,4.62,76.7,M,-32.9,M,,*54

@,!,225,&,100431

$GPGGA,172559.00,3456.57614,N,12025.37517,W,1,04,4.63,76.9,M,-32.9,M,,*5D

@,!,225,&,100431

$GPGGA,172600.00,3456.57719,N,12025.37570,W,1,04,4.63,77.2,M,-32.9,M,,*55

@,!,225,&,100426

$GPGGA,172601.00,3456.57732,N,12025.37617,W,1,04,4.63,78.9,M,-32.9,M,,*5B

@,!,225,&,100420

$GPGGA,172602.00,3456.57570,N,12025.37758,W,1,04,4.63,76.5,M,-32.9,M,,*54

@,!,225,&,100423

$GPGGA,172603.00,3456.57571,N,12025.37870,W,1,05,3.89,77.5,M,-32.9,M,,*52

@,!,225,&,100434

$GPGGA,172604.00,3456.57614,N,12025.37984,W,1,05,3.89,78.3,M,-32.9,M,,*56

@,!,225,&,100426

$GPGGA,172605.00,3456.57644,N,12025.38119,W,1,05,3.89,78.6,M,-32.9,M,,*54

@,!,224,&,100420

$GPGGA,172606.00,3456.57612,N,12025.38196,W,1,05,3.89,76.8,M,-32.9,M,,*53

@,!,224,&,100406

$GPGGA,172607.00,3456.57694,N,12025.38266,W,1,05,3.89,79.3,M,-32.9,M,,*54

@,!,224,&,100403

$GPGGA,172608.00,3456.57683,N,12025.38287,W,1,05,3.89,79.7,M,-32.9,M,,*56

@,!,224,&,100394

$GPGGA,172609.00,3456.57611,N,12025.38323,W,1,05,3.89,77.7,M,-32.9,M,,*5D

@,!,224,&,100394

$GPGGA,172610.00,3456.57564,N,12025.38367,W,1,05,3.89,76.8,M,-32.9,M,,*5A

@,!,225,&,100394

$GPGGA,172611.00,3456.57566,N,12025.38352,W,1,05,3.89,78.7,M,-32.9,M,,*5E

@,!,225,&,100372

$GPGGA,172612.00,3456.57679,N,12025.38212,W,1,05,3.89,84.1,M,-32.9,M,,*50

@,!,225,&,100366

$GPGGA,172613.00,3456.57609,N,12025.37986,W,1,05,3.89,86.1,M,-32.9,M,,*5D

@,!,225,&,100360

$GPGGA,172614.00,3456.57603,N,12025.37854,W,1,05,3.89,87.2,M,-32.9,M,,*5C

@,!,225,&,100352

$GPGGA,172615.00,3456.57405,N,12025.37933,W,1,05,3.89,83.6,M,-32.9,M,,*59

@,!,225,&,100355

$GPGGA,172616.00,3456.57361,N,12025.37997,W,1,05,3.89,82.8,M,-32.9,M,,*5E

@,!,225,&,100340

$GPGGA,172617.00,3456.57341,N,12025.38071,W,1,05,3.89,83.5,M,-32.9,M,,*5F

@,!,225,&,100340

$GPGGA,172618.00,3456.57266,N,12025.38206,W,1,05,3.89,82.0,M,-32.9,M,,*52

@,!,225,&,100324

$GPGGA,172619.00,3456.57171,N,12025.38296,W,1,05,3.89,79.3,M,-32.9,M,,*58

@,!,225,&,100333

$GPGGA,172620.00,3456.57157,N,12025.38339,W,1,05,3.89,78.6,M,-32.9,M,,*56

@,!,225,&,100316

$GPGGA,172621.00,3456.57211,N,12025.38370,W,1,05,3.88,79.1,M,-32.9,M,,*5C

@,!,225,&,100313

$GPGGA,172622.00,3456.57235,N,12025.38343,W,1,05,3.88,81.9,M,-32.9,M,,*56

@,!,225,&,100301

$GPGGA,172623.00,3456.57270,N,12025.38314,W,1,05,3.88,83.9,M,-32.9,M,,*56

@,!,225,&,100296

$GPGGA,172624.00,3456.57289,N,12025.38327,W,1,05,3.88,84.8,M,-32.9,M,,*51

@,!,225,&,100299

$GPGGA,172625.00,3456.57303,N,12025.38288,W,1,05,3.88,86.0,M,-32.9,M,,*5D

@,!,225,&,100280

$GPGGA,172626.00,3456.57300,N,12025.38292,W,1,05,3.88,86.7,M,-32.9,M,,*51

@,!,225,&,100293

$GPGGA,172627.00,3456.57330,N,12025.38262,W,1,05,3.88,86.9,M,-32.9,M,,*52

@,!,225,&,100274

$GPGGA,172628.00,3456.57356,N,12025.38256,W,1,05,3.88,88.2,M,-32.9,M,,*5F

@,!,225,&,100277

$GPGGA,172629.00,3456.57418,N,12025.38261,W,1,05,3.88,90.0,M,-32.9,M,,*5C

@,!,225,&,100271

$GPGGA,172630.00,3456.57426,N,12025.38276,W,1,05,3.88,90.7,M,-32.9,M,,*58

@,!,225,&,100251

$GPGGA,172631.00,3456.57403,N,12025.38164,W,1,05,3.88,92.5,M,-32.9,M,,*5E

@,!,225,&,100246

$GPGGA,172632.00,3456.57305,N,12025.38098,W,1,05,3.88,91.3,M,-32.9,M,,*5B

@,!,225,&,100248

$GPGGA,172633.00,3456.57262,N,12025.38127,W,1,05,3.88,90.9,M,-32.9,M,,*54

@,!,225,&,100240

$GPGGA,172634.00,3456.57235,N,12025.38156,W,1,05,3.88,90.8,M,-32.9,M,,*56

@,!,225,&,100231

$GPGGA,172635.00,3456.57232,N,12025.38156,W,1,05,3.88,91.3,M,-32.9,M,,*5A

@,!,225,&,100217

$GPGGA,172636.00,3456.57215,N,12025.38157,W,1,05,3.88,92.6,M,-32.9,M,,*5B

@,!,225,&,100228

$GPGGA,172637.00,3456.57231,N,12025.38137,W,1,05,3.88,94.7,M,-32.9,M,,*5D

@,!,225,&,100220

$GPGGA,172638.00,3456.57192,N,12025.38150,W,1,05,3.88,94.8,M,-32.9,M,,*56

@,!,225,&,100220

$GPGGA,172639.00,3456.57239,N,12025.38120,W,1,05,3.88,96.4,M,-32.9,M,,*5C

@,!,225,&,100217

$GPGGA,172640.00,3456.57226,N,12025.38150,W,1,05,3.88,96.8,M,-32.9,M,,*57

@,!,225,&,100223

$GPGGA,172641.00,3456.57165,N,12025.38208,W,1,05,3.88,96.0,M,-32.9,M,,*54

@,!,225,&,100214

$GPGGA,172642.00,3456.57165,N,12025.38232,W,1,05,3.88,93.9,M,-32.9,M,,*52

@,!,225,&,100220

$GPGGA,172643.00,3456.57175,N,12025.38296,W,1,05,3.88,94.1,M,-32.9,M,,*53

@,!,225,&,100226

$GPGGA,172644.00,3456.57335,N,12025.38283,W,1,05,3.88,98.3,M,-32.9,M,,*58

@,!,225,&,100220

$GPGGA,172645.00,3456.57419,N,12025.38303,W,1,05,3.88,100.3,M,-32.9,M,,*69

@,!,225,&,100220

$GPGGA,172646.00,3456.57444,N,12025.38261,W,1,05,3.88,103.4,M,-32.9,M,,*63

@,!,225,&,100220

$GPGGA,172647.00,3456.57495,N,12025.38262,W,1,05,3.88,107.4,M,-32.9,M,,*69

@,!,225,&,100200

$GPGGA,172648.00,3456.57504,N,12025.38239,W,1,05,3.88,109.4,M,-32.9,M,,*6F

@,!,225,&,100214

$GPGGA,172649.00,3456.57493,N,12025.38243,W,1,05,3.88,109.6,M,-32.9,M,,*6E

@,!,225,&,100217

$GPGGA,172650.00,3456.57447,N,12025.38269,W,1,05,3.88,108.6,M,-32.9,M,,*66

@,!,225,&,100220

$GPGGA,172651.00,3456.57441,N,12025.38271,W,1,05,3.87,108.1,M,-32.9,M,,*60

@,!,226,&,100214

$GPGGA,172652.00,3456.57436,N,12025.38247,W,1,05,3.87,108.0,M,-32.9,M,,*67

@,!,225,&,100206

$GPGGA,172653.00,3456.57427,N,12025.38191,W,1,05,3.87,107.4,M,-32.9,M,,*65

@,!,225,&,100189

$GPGGA,172654.00,3456.57298,N,12025.38209,W,1,05,3.87,102.6,M,-32.9,M,,*65

@,!,225,&,100197

$GPGGA,172655.00,3456.57294,N,12025.38195,W,1,05,3.87,102.3,M,-32.9,M,,*6B

@,!,225,&,100192

$GPGGA,172656.00,3456.57299,N,12025.38171,W,1,05,3.87,102.1,M,-32.9,M,,*6D

@,!,225,&,100183

$GPGGA,172657.00,3456.57344,N,12025.38144,W,1,05,3.87,102.8,M,-32.9,M,,*62

@,!,225,&,100177

$GPGGA,172658.00,3456.57342,N,12025.38140,W,1,05,3.87,103.4,M,-32.9,M,,*62

@,!,225,&,100157

$GPGGA,172659.00,3456.57358,N,12025.38136,W,1,05,3.87,105.1,M,-32.9,M,,*6A

@,!,225,&,100160

$GPGGA,172700.00,3456.57350,N,12025.38117,W,1,05,3.87,106.3,M,-32.9,M,,*6D

@,!,225,&,100152

$GPGGA,172701.00,3456.57298,N,12025.38169,W,1,05,3.87,106.3,M,-32.9,M,,*60

@,!,225,&,100144

$GPGGA,172702.00,3456.57381,N,12025.38247,W,1,05,3.87,107.2,M,-32.9,M,,*65

@,!,225,&,100147

$GPGGA,172703.00,3456.57365,N,12025.38252,W,1,05,3.87,106.6,M,-32.9,M,,*6F

@,!,225,&,100139

$GPGGA,172704.00,3456.57337,N,12025.38224,W,1,05,3.87,105.9,M,-32.9,M,,*62

@,!,225,&,100130

$GPGGA,172705.00,3456.57256,N,12025.38198,W,1,05,3.87,104.7,M,-32.9,M,,*6E

@,!,225,&,100124

$GPGGA,172706.00,3456.57225,N,12025.38163,W,1,05,3.87,104.6,M,-32.9,M,,*6C

@,!,225,&,100113

$GPGGA,172707.00,3456.57231,N,12025.38133,W,1,05,3.87,105.5,M,-32.9,M,,*6F

@,!,225,&,100107

$GPGGA,172708.00,3456.57286,N,12025.38124,W,1,05,3.87,107.4,M,-32.9,M,,*69

@,!,225,&,100104

$GPGGA,172709.00,3456.57263,N,12025.38119,W,1,05,3.87,107.7,M,-32.9,M,,*6E

@,!,225,&,100093

$GPGGA,172710.00,3456.57247,N,12025.38092,W,1,05,3.87,106.7,M,-32.9,M,,*63

@,!,225,&,100087

$GPGGA,172711.00,3456.57202,N,12025.38150,W,1,05,3.87,105.3,M,-32.9,M,,*6B

@,!,224,&,100087

$GPGGA,172712.00,3456.57185,N,12025.38149,W,1,05,3.87,103.9,M,-32.9,M,,*60

@,!,224,&,100073

$GPGGA,172713.00,3456.57150,N,12025.38102,W,1,05,3.87,103.2,M,-32.9,M,,*6D

@,!,224,&,100073

$GPGGA,172714.00,3456.57093,N,12025.38113,W,1,05,3.86,102.7,M,-32.9,M,,*61

@,!,224,&,100063

$GPGGA,172715.00,3456.57053,N,12025.38150,W,1,05,3.86,101.9,M,-32.9,M,,*66

@,!,224,&,100051

$GPGGA,172716.00,3456.57029,N,12025.38186,W,1,05,3.86,101.2,M,-32.9,M,,*68

@,!,224,&,100051

$GPGGA,172717.00,3456.57030,N,12025.38177,W,1,05,3.86,100.6,M,-32.9,M,,*6A

@,!,224,&,100040

$GPGGA,172718.00,3456.57004,N,12025.38187,W,1,05,3.86,99.6,M,-32.9,M,,*5C

@,!,224,&,100048

$GPGGA,172719.00,3456.56998,N,12025.38162,W,1,05,3.86,99.0,M,-32.9,M,,*5D

@,!,224,&,100037

$GPGGA,172720.00,3456.57022,N,12025.38148,W,1,05,3.86,99.7,M,-32.9,M,,*51

@,!,224,&,100029

$GPGGA,172721.00,3456.57408,N,12025.38062,W,1,06,1.91,108.9,M,-32.9,M,,*65

@,!,223,&,100026

